_id,都道府県コード又は市区町村コード,NO,都道府県名,市区町村名,名称,名称_カナ,医療機関の種類,住所,方書,緯度,経度,電話番号,内線番号,FAX番号,法人番号,法人の名称,医療機関コード,診療曜日,診療開始時間,診療終了時間,診療日時特記事項,時間外における対応,診療科目,病床数,URL,備考
1,472131,115,沖縄県,うるま市,沖縄県立中部病院　,オキナワケンリツナカベビョウイン　,病院,沖縄県うるま市字宮里281　,,26.35565562,127.833808,(098)973-4111,,,,,,,,,,,内科;呼吸器内科;消化器内科;循環器内科;神経内科;心療内科;外科;呼吸器外科;消化器外科;気管食道外科;肛門外科;心臓血管外科;脳神経外科;小児外科;整形外科;形成外科;精神科;アレルギー科;リウマチ科;小児科;皮膚科;泌尿器科;産科;婦人科;眼科;耳鼻咽喉科;リハビリテーション科;放射線科;病理診断科;救急科;歯科口腔外科;麻酔科;腎臓内科;血液;腫瘍内科;感染症内科;糖尿病;代謝内科;内分泌内科;乳腺外科;耳鼻咽喉;頭頸部外科;新生児内科;緩和ケア内科,0.0,,
2,472131,123,沖縄県,うるま市,医療法人社団志誠会　平和病院,イリョウホウジンシャダンココロザシマコトカイ　ヘイワビョウイン,病院,沖縄県うるま市字上江洲665　,,26.35925576,127.8595441,(098)973-2000,,,,,,,,,,,精神科;心療内科,0.0,,
3,472131,125,沖縄県,うるま市,いずみ病院,イズミビョウイン,病院,沖縄県うるま市字栄野比1150　,,26.39749011,127.8278101,(098)972-7788,,,,,,,,,,,精神科;内科;心療内科,0.0,,
4,472131,129,沖縄県,うるま市,医療法人沖縄寿光会　与勝病院,イリョウホウジンオキナワジュコウカイ　ヨカツビョウイン,病院,沖縄県うるま市勝連南風原3584　,,26.3266236,127.8827137,(098)978-5235,,,,,,,,,,,内科;外科;整形外科;耳鼻咽喉科;循環器内科;呼吸器内科;消化器外科;皮膚科;リハビリテーション科;腎臓内科;人工透析内科;歯科;歯科口腔外科,0.0,,
5,472131,131,沖縄県,うるま市,うるま記念病院,ウルマキネンビョウイン,病院,沖縄県うるま市字昆布1832‐397,,26.39641829,127.8404396,(098)972-6000,,,,,,,,,,,精神科;内科;老年精神科;リハビリテーション科 ,0.0,,
6,472131,138,沖縄県,うるま市,名城病院,ナシロビョウイン,病院,沖縄県うるま市字赤道175‐3,,26.35357244,127.8305611,(098)974-2121,,,,,,,,,,,産科;婦人科,0.0,,
7,472131,144,沖縄県,うるま市,海上自衛隊沖縄基地隊医務室,カイジョウジエイタイオキナワキチタイイムシツ,有床診療所,沖縄県うるま市勝連平敷屋1920　,,26.30839587,127.9145646,(098)978-3453,,,,,,,,,,,内科;外科;歯科,0.0,,
8,472131,150,沖縄県,うるま市,特別養護老人ホーム楽寿園診療所,トクベツヨウゴロウジンホームラクジュエンシンリョウジョ,無床診療所,沖縄県うるま市石川嘉手苅961‐17,,26.4253311,127.7975918,(098)965-4152,,,,,,,,,,,内科;外科;消化器科,0.0,,
9,472131,151,沖縄県,うるま市,特別養護老人ホーム与勝の里医務室,トクベツヨウゴロウジンホームヨカツノサトイムシツ,無床診療所,沖縄県うるま市勝連南風原4902　,,26.34214967,127.8770784,(098)978-2629,,,,,,,,,,,内科;外科,0.0,,
10,472131,152,沖縄県,うるま市,特別養護老人ホーム平和の村医務室,トクベツヨウゴロウジンホームヘイワノソンイムシツ,無床診療所,沖縄県うるま市字昆布1832‐1,,26.39874306,127.839884,(098)972-5000,,,,,,,,,,,内科;皮膚科,0.0,,
11,472131,162,沖縄県,うるま市,山田小児科内科医院,ヤマダショウニカナイカイイン,無床診療所,沖縄県うるま市石川東山1ｰ19‐11,,26.43527874,127.8379576,(098)965-3577,,,,,,,,,,,内科;小児科,0.0,,
12,472131,166,沖縄県,うるま市,宮里眼科,ミヤザトガンカ,無床診療所,沖縄県うるま市石川東山1ｰ22‐2,,26.43508985,127.8374938,(098)965-2536,,,,,,,,,,,眼科,0.0,,
13,472131,167,沖縄県,うるま市,中山内科医院,ナカヤマナイカイイン,無床診療所,沖縄県うるま市字赤道260‐7,,26.35592221,127.8306277,(098)974-4620,,,,,,,,,,,内科;小児科;皮膚科,0.0,,
14,472131,170,沖縄県,うるま市,川根内科外科　血管外科クリニック,カワネナイカゲカケッカンゲカクリニック,無床診療所,沖縄県うるま市みどり町4ｰ2‐29,,26.37842042,127.8567663,(098)974-3025,,,,,,,,,,,内科;小児科;皮膚科;外科;整形外科;麻酔科;血管外科,0.0,,
15,472131,174,沖縄県,うるま市,沖縄県立中部病院附属津堅診療所,チュウブビョウインフゾクツケンシンリョウショ,無床診療所,沖縄県うるま市勝連津堅1582　,,26.24861355,127.938714,(098)978-2918,,,,,,,,,,,内科;小児科;外科,0.0,,
16,472131,178,沖縄県,うるま市,医療法人うるま会　具志川整形外科,グシカワセイケイゲカ,無床診療所,沖縄県うるま市みどり町4ｰ13‐1,,26.37649281,127.8555498,(098)974-2610,,,,,,,,,,,整形外科;リハビリテ－ション科,0.0,,
17,472131,179,沖縄県,うるま市,しげま小児科医院,シゲマショウニカイイン,無床診療所,沖縄県うるま市みどり町3ｰ18‐12,,26.37420979,127.8590606,(098)973-2300,,,,,,,,,,,小児科;内科;皮膚科;耳鼻咽喉科,0.0,,
18,472131,183,沖縄県,うるま市,みどり町眼科,ミドリマチガンカ,無床診療所,沖縄県うるま市みどり町4ｰ14‐7,号ｺｰﾎﾟ仲宗根1階,26.37590677,127.8557082,(098)974-2300,,,,,,,,,,,眼科,0.0,,
19,472131,193,沖縄県,うるま市,指定障害者支援施設美原の里医務室,シテイショウガイシャシエンシセツミハラノサトイムシツ,無床診療所,沖縄県うるま市石川東恩納1517　,,26.40684767,127.8322927,(098)965-3308,,,,,,,,,,,精神科,0.0,,
20,472131,194,沖縄県,うるま市,大嶺医院,オオミネイイン,無床診療所,沖縄県うるま市字田場1417　,,26.3683104,127.8590941,(098)973-1125,,,,,,,,,,,内科;小児科;皮膚科;外科;整形外科,0.0,,
21,472131,197,沖縄県,うるま市,特別養護老人ホームあやはし苑医務室,トクベツヨウゴロウジンホームアヤハシソノイムシツ,無床診療所,沖縄県うるま市与那城屋慶名1410　,,26.32717438,127.90912,(098)978-5566,,,,,,,,,,,内科,0.0,,
22,472131,218,沖縄県,うるま市,ぐしかわ皮ふ科,グシカワヒフカ,無床診療所,沖縄県うるま市みどり町4ｰ19‐1,,26.37517073,127.8556054,(098)973-3008,,,,,,,,,,,皮膚科;性病科,0.0,,
23,472131,236,沖縄県,うるま市,みどり町クリニック,ミドリマチクリニック,無床診療所,沖縄県うるま市みどり町5ｰ27‐2,,26.37803146,127.8512919,(098)972-3858,,,,,,,,,,,内科;小児科;皮膚科,0.0,,
24,472131,247,沖縄県,うるま市,よしクリニック,ヨシクリニック,無床診療所,沖縄県うるま市石川曙3ｰ2‐10,,26.41924082,127.82514,(098)982-5353,,,,,,,,,,,内科;外科;整形外科;皮膚科;肛門科,0.0,,
25,472131,252,沖縄県,うるま市,平良川整形外科,タイラガワセイケイゲカ,無床診療所,沖縄県うるま市字喜屋武169‐5,,26.36344119,127.8474926,(098)974-5670,,,,,,,,,,,整形外科,0.0,,
26,472131,255,沖縄県,うるま市,しゅくみね内科,ショクミネナイカ,無床診療所,沖縄県うるま市字赤道759‐1,,26.35941342,127.8215367,(098)975-1515,,,,,,,,,,,内科;消化器科;胃腸科;呼吸器科;循環器科,0.0,,
27,472131,259,沖縄県,うるま市,あさと整形クリニック,アサトセイケイクリニック,無床診療所,沖縄県うるま市石川1ｰ16‐16,,26.43090093,127.824645,(098)982-5621,,,,,,,,,,,整形外科;リウマチ科;リハビリテーション科,0.0,,
28,472131,261,沖縄県,うるま市,よざ耳鼻咽喉科,ヨザジビインコウカ,無床診療所,沖縄県うるま市字石川2381‐1,,26.43423135,127.8291945,(098)964-4133,,,,,,,,,,,耳鼻咽喉科,0.0,,
29,472131,262,沖縄県,うるま市,ぐしけん眼科,グシケンガンカ,無床診療所,沖縄県うるま市字具志川1371‐1,,26.34490759,127.8725955,(098)975-1010,,,,,,,,,,,眼科,0.0,,
30,472131,263,沖縄県,うるま市,しま小児科内科クリニック,シマショウニカナイカクリニック,無床診療所,沖縄県うるま市安慶名3ｰ23‐24,,26.37345416,127.8518558,(098)972-3788,,,,,,,,,,,小児科;内科;アレルギー科;皮膚科,0.0,,
31,472131,267,沖縄県,うるま市,具志川厚生園医務室,ウシカワコウセイエンイムシツ,無床診療所,沖縄県うるま市字天願1983　,,26.38331702,127.8508501,(098)972-6677,,,,,,,,,,,内科;精神科,0.0,,
32,472131,283,沖縄県,うるま市,医療法人徳洲会　与勝あやはしクリニック　,ヨカツアヤハシクリニック,無床診療所,沖縄県うるま市与那城屋慶名467‐111,,26.32917955,127.903337,(098)983-0055,,,,,,,,,,,内科;外科;小児科;泌尿器科;リハビリテーション科;人工透析内科,0.0,,
33,472131,296,沖縄県,うるま市,伊波クリニック　 ,イハクリニック,無床診療所,沖縄県うるま市石川伊波431　,,26.41906015,127.8205209,(098)964-5735,,,,,,,,,,,内科;小児科;皮膚科;放射線科;ペインクリニック内科,0.0,,
47,472131,361,沖縄県,うるま市,石川医院,イシカワイイン,無床診療所,沖縄県うるま市石川2ｰ21‐5,,26.42663742,127.8253618,(098)964-3049,,,,,,,,,,,内科;小児科,0.0,,
34,472131,297,沖縄県,うるま市,みのり内科クリニック,ミノリナイカクリニック,無床診療所,沖縄県うるま市石川2408　,,26.43415915,127.8296222,(098)965-7770,,,,,,,,,,,内科;消化器内科;人工透析内科;小児科,0.0,,
35,472131,302,沖縄県,うるま市,東山整形外科,アガリヤマセイケイゲカ,無床診療所,沖縄県うるま市石川東山2ｰ30‐14,,26.43506211,127.8387826,(098)963-0333,,,,,,,,,,,整形外科;リハビリテーション科;リウマチ科,0.0,,
36,472131,310,沖縄県,うるま市,たまき心療内科クリニック,タマキシンリョウナイカクリニック,無床診療所,沖縄県うるま市字赤道260‐6,,26.35596943,127.8303416,(098)989-3566,,,,,,,,,,,心療内科;精神科,0.0,,
37,472131,311,沖縄県,うるま市,おおみね眼科,オオミネガンカ,無床診療所,沖縄県うるま市安慶名3ｰ39‐3,,26.37154325,127.8519614,(098)974-3733,,,,,,,,,,,眼科,0.0,,
38,472131,313,沖縄県,うるま市,いわした内科クリニック,イワシタナイカクリニック,無床診療所,沖縄県うるま市安慶名1ｰ2‐11,,26.37464853,127.8542083,(098)982-6666,,,,,,,,,,,内科;胃腸内科;糖尿病内科;循環器内科;呼吸器内科,0.0,,
39,472131,322,沖縄県,うるま市,すながわ内科クリニック,スナガワナイカクリニック,無床診療所,沖縄県うるま市字江洲600‐5,,26.34835911,127.8346082,(098)975-2525,,,,,,,,,,,内科;糖尿病内科;腎臓内科;呼吸器内科;循環器内科;人工透析内科;リハビリテーション科,0.0,,
40,472131,323,沖縄県,うるま市,とくだ心療内科,トクダシンリョウナイカ,無床診療所,沖縄県うるま市字江洲547‐2,,26.34968392,127.8304251,(098)963-8756,,,,,,,,,,,心療内科;精神科,0.0,,
41,472131,338,沖縄県,うるま市,なかよし眼科,ナカヨシガンカ,無床診療所,沖縄県うるま市字宮里763‐1,,26.35173101,127.8346941,(098)974-7111,,,,,,,,,,,眼科,0.0,,
42,472131,343,沖縄県,うるま市,大伴医院,オオトモイイン,無床診療所,沖縄県うるま市勝連南風原371‐4,,26.34173012,127.8715429,(098)978-5655,,,,,,,,,,,内科;産婦人科;小児科,0.0,,
43,472131,346,沖縄県,うるま市,カヨウ眼科,カヨウガンカ,無床診療所,沖縄県うるま市石川白浜2ｰ13‐12,,26.42267942,127.8251426,(098)965-2020,,,,,,,,,,,眼科,0.0,,
44,472131,347,沖縄県,うるま市,うるまこころのクリニック,ウルマココロノクリニック,無床診療所,沖縄県うるま市字喜屋武546‐1,,26.36016367,127.8432819,(098)923-9999,,,,,,,,,,,精神科;心療内科,0.0,,
45,472131,353,沖縄県,うるま市,しらはま内科,シラハマナイカ,無床診療所,沖縄県うるま市石川白浜1ｰ2‐3,,26.42749297,127.8274199,(098)965-0800,,,,,,,,,,,内科;呼吸器内科,0.0,,
46,472131,354,沖縄県,うるま市,しろま内科クリニック,シロマナイカクリニック,無床診療所,沖縄県うるま市字喜屋武546‐1,,26.36016367,127.8432819,(098)973-2500,,,,,,,,,,,内科;呼吸器内科,0.0,,
48,472131,370,沖縄県,うるま市,いしかわ脳とこころの診療所,イシカワノウトココロノシンリョウショ,無床診療所,沖縄県うるま市石川2ｰ1‐7,石川中央団地店舗103号,26.42694298,127.8261562,(098)965-5777,,,,,,,,,,,精神科;心療内科,0.0,,
49,472131,373,沖縄県,うるま市,江洲整形外科クリニック,エスセイケイゲカクリニック,無床診療所,沖縄県うるま市字江洲598‐4,2階,26.34840909,127.8333055,(098)979-1515,,,,,,,,,,,整形外科;リハビリテーション科,0.0,,
50,472131,374,沖縄県,うるま市,医療法人うるまの杜　カヨウ眼科,カヨウガンカ,無床診療所,沖縄県うるま市石川白浜2ｰ13‐12,,26.42267942,127.8251426,(098)965-2020,,,,,,,,,,,眼科,0.0,,
51,472131,379,沖縄県,うるま市,ひまわりキッズクリニック,ヒマワリキッズクリニック,無床診療所,沖縄県うるま市字赤道174‐12,(101号室),26.35374187,127.8299722,(098)974-2982,,,,,,,,,,,小児科,0.0,,
52,472131,381,沖縄県,うるま市,和花クリニック,ワカクリニック,無床診療所,沖縄県うるま市字江洲135‐5,,26.34430669,127.8317001,(098)923-5818,,,,,,,,,,,内科,0.0,,
53,472131,384,沖縄県,うるま市,あかみち整形外科リハビリクリニック,アカミチセイケイゲカリハビリクリニック,無床診療所,沖縄県うるま市字赤道630　,,26.36220769,127.8288999,(098)987-8466,,,,,,,,,,,整形外科;リハビリテーション科,0.0,,
54,472131,386,沖縄県,うるま市,いずみクリニック,イズミクリニック,無床診療所,沖縄県うるま市字高江洲978‐1,,26.35711665,127.8376826,(098)979-0562,,,,,,,,,,,精神科;心療内科;内科,0.0,,
55,472131,387,沖縄県,うるま市,かつれん耳鼻科クリニック,カツレンジビカクリニック,無床診療所,沖縄県うるま市勝連平安名1655‐1-1,,26.32457957,127.8899435,(098)989-6381,,,,,,,,,,,耳鼻咽喉科;頭頸部外科,0.0,,
56,472131,390,沖縄県,うるま市,さくらビューティークリニック　沖縄院,サクラビューティークリニックオキナワイン,無床診療所,沖縄県うるま市前原幸崎原303,　ｲｵﾝ具志川店1階,26.34213503,127.8472374,(098)979-3878,,,,,,,,,,,美容皮膚科,0.0,,
57,472131,392,沖縄県,うるま市,伊禮内科クリニック,イレイナイカクリニック,無床診療所,沖縄県うるま市与那城西原763‐1,,26.32859014,127.8854995,(098)978-7332,,,,,,,,,,,内科;消化器内科,0.0,,
58,472131,395,沖縄県,うるま市,琉球こころのクリニック,リュウキュウココロノクリニック,無床診療所,沖縄県うるま市安慶名3ｰ24‐5,,26.37248483,127.8523669,(098)988-5031,,,,,,,,,,,心療内科;精神科,0.0,,
59,472131,401,沖縄県,うるま市,さとう皮フ科,サトウヒフカ,無床診療所,沖縄県うるま市字宮里262‐18,,26.3552168,127.8349801,(098)989-8628,,,,,,,,,,,皮膚科,0.0,,
60,472131,407,沖縄県,うるま市,あずさクリニック,アズサクリニック,無床診療所,沖縄県うるま市字赤道630　,,26.36220769,127.8288999,(098)975-0055,,,,,,,,,,,内科;糖尿病内科,0.0,,
61,472131,411,沖縄県,うるま市,発達クリニック Can,ハッタツクリニック,無床診療所,沖縄県うるま市字喜屋武384‐3-2,きゃんﾒﾃﾞｨｶﾙﾌﾟﾗｻﾞ4B,26.36024429,127.8482675,(098)973-7711,,,,,,,,,,,小児科;精神科;児童精神科;心療内科;リハビリテーション科,0.0,,
62,472131,412,沖縄県,うるま市,いしはらクリニック ,イシハラクリニック,無床診療所,沖縄県うるま市字喜屋武384‐3-2,きゃんﾒﾃﾞｨｶﾙﾌﾟﾗｻﾞ1A,26.36024429,127.8482675,(098)973-0088,,,,,,,,,,,内科;循環器内科;脳神経外科;外科;放射線科,0.0,,
63,472131,415,沖縄県,うるま市,のは歯科クリニック,ノハシカクリニック,無床診療所,沖縄県うるま市石川白浜1ｰ2‐3,,26.42749297,127.8274199,(098)965-1862,,,,,,,,,,,歯科,0.0,,
64,472131,425,沖縄県,うるま市,スマイル歯科医院,スマイルシカイイン,無床診療所,沖縄県うるま市高江洲1080‐1,2階,26.3578444,127.8405795,(098)974-3311,,,,,,,,,,,歯科;小児歯科　,0.0,,
65,472131,427,沖縄県,うるま市,藏當歯科医院,クラトウシカイイン,無床診療所,沖縄県うるま市勝連平安名1498‐1,,26.32247708,127.8925487,(098)978-7528,,,,,,,,,,,歯科;小児歯科;矯正歯科,0.0,,
66,472131,429,沖縄県,うるま市,パ－ク歯科,パークシカ,無床診療所,沖縄県うるま市みどり町1ｰ1‐6,,26.37915367,127.8565302,(098)974-3663,,,,,,,,,,,歯科　,0.0,,
67,472131,431,沖縄県,うるま市,石川歯科医院,イシカワシカイイン,無床診療所,沖縄県うるま市石川2ｰ21‐5,,26.42663742,127.8253618,(098)964-5958,,,,,,,,,,,歯科,0.0,,
68,472131,432,沖縄県,うるま市,しおみ歯科医院,シオミシカイイン,無床診療所,沖縄県うるま市字与那城122‐1,,26.32597662,127.8886853,(098)978-7804,,,,,,,,,,,歯科;小児歯科,0.0,,
69,472131,438,沖縄県,うるま市,屋慶名歯科医院,ヤケナシカイイン,無床診療所,沖縄県うるま市与那城屋慶名1103　,,26.32311086,127.9082172,(098)978-6289,,,,,,,,,,,歯科,0.0,,
70,472131,442,沖縄県,うるま市,ファミリー歯科クリニック,ファミリーシカクリニック,無床診療所,沖縄県うるま市みどり町5ｰ3‐11,,26.37621225,127.8537083,(098)972-4141,,,,,,,,,,,歯科;小児歯科;矯正歯科,0.0,,
71,472131,446,沖縄県,うるま市,与勝ホワイト歯科,ヨカツホワイトシカ,無床診療所,沖縄県うるま市勝連南風原4025‐1,,26.33204809,127.883897,(098)978-7860,,,,,,,,,,,歯科,0.0,,
72,472131,451,沖縄県,うるま市,つばさ歯科クリニック,ツバサシカクリニック,無床診療所,沖縄県うるま市字喜屋武565　,,26.35974981,127.8425959,(098)974-4649,,,,,,,,,,,歯科;小児歯科;矯正歯科,0.0,,
73,472131,454,沖縄県,うるま市,たなか歯科医院,タナカシカイイン,無床診療所,沖縄県うるま市字田場1817‐1,,26.37200727,127.8601106,(098)974-8888,,,,,,,,,,,歯科,0.0,,
74,472131,472,沖縄県,うるま市,かわい歯科医院,カワイシカイイン,無床診療所,沖縄県うるま市みどり町4ｰ12‐25,201号室,26.37682611,127.8550665,(098)973-7506,,,,,,,,,,,歯科,0.0,,
75,472131,473,沖縄県,うるま市,わかば歯科医院,ワカバシカイイン,無床診療所,沖縄県うるま市石川東恩納733　,,26.41271635,127.8241515,(098)964-4182,,,,,,,,,,,歯科,0.0,,
76,472131,494,沖縄県,うるま市,ほんだ歯科,ホンダシカ,無床診療所,沖縄県うるま市字与那城94‐1,,26.32562952,127.8915267,(098)978-7831,,,,,,,,,,,歯科,0.0,,
77,472131,495,沖縄県,うるま市,みどり町さくら歯科医院,ミドリマチサクラシカイイン,無床診療所,沖縄県うるま市みどり町6ｰ2‐16,,26.3811507,127.8572107,(098)972-2221,,,,,,,,,,,歯科,0.0,,
78,472131,500,沖縄県,うるま市,うるまデンタルクリニック,ウルマデンタルクリニック,無床診療所,沖縄県うるま市江洲457‐1,3階,26.35329741,127.8264031,(098)947-8049,,,,,,,,,,,歯科;小児歯科,0.0,,
79,472131,512,沖縄県,うるま市,医療法人花の城会　愛の里歯科診療所,アイノサトシカシンリョウショ,無床診療所,沖縄県うるま市字江洲522‐19,,26.35113378,127.8298612,(098)974-8571,,,,,,,,,,,歯科;小児歯科;矯正歯科;歯科口腔外科,0.0,,
80,472131,513,沖縄県,うるま市,あおば歯科クリニック,アオバシカクリニック,無床診療所,沖縄県うるま市字安慶名385‐2,,26.36986563,127.8514448,(098)972-4618,,,,,,,,,,,歯科;小児歯科,0.0,,
81,472131,515,沖縄県,うるま市,銀座歯科医院,ギンザシカイイン,無床診療所,沖縄県うるま市石川1ｰ4‐2,,26.42829285,127.8257395,(098)964-2045,,,,,,,,,,,歯科;小児歯科;矯正歯科;口腔外科,0.0,,
82,472131,516,沖縄県,うるま市,幸一デンタルオフィス,コウイチデンタルオフィス,無床診療所,沖縄県うるま市石川1ｰ47‐26,,26.43261758,127.8288557,(098)965-7171,,,,,,,,,,,歯科;小児歯科;歯科口腔外科,0.0,,
83,472131,517,沖縄県,うるま市,エース歯科クリニック,エースシカクリニック,無床診療所,沖縄県うるま市石川東恩納62‐2,,26.41039722,127.8279013,(098)965-6336,,,,,,,,,,,歯科,0.0,,
84,472131,520,沖縄県,うるま市,なかま歯科室,ナカマシカシツ,無床診療所,沖縄県うるま市字江洲598‐4,,26.34840909,127.8333055,(098)979-1020,,,,,,,,,,,歯科;小児歯科;矯正歯科;歯科口腔外科,0.0,,
85,472131,523,沖縄県,うるま市,野原歯科医院,ノハラシカイン,無床診療所,沖縄県うるま市字平良川97‐8,,26.36516052,127.8503367,(098)975-1888,,,,,,,,,,,歯科,0.0,,
86,472131,526,沖縄県,うるま市,３０ミオ　矯正歯科,ミオキョウセイシカ,無床診療所,沖縄県うるま市字江洲549‐1,,26.34998111,127.8300196,(098)973-4188,,,,,,,,,,,矯正歯科,0.0,,
87,472131,536,沖縄県,うるま市,仲真歯科医院,ナカマシカイイン,無床診療所,沖縄県うるま市字喜屋武694‐3,,26.35657522,127.8483704,(098)923-0112,,,,,,,,,,,歯科;小児歯科;矯正歯科;口腔外科,0.0,,
88,472131,537,沖縄県,うるま市,医療法人社団秋桜会　ファーストデンタルクリニックうるま,ファーストデンタルクリニックウルマ,無床診療所,沖縄県うるま市安慶名1ｰ2‐18,,26.37436523,127.8539556,(098)973-8010,,,,,,,,,,,歯科;小児歯科;矯正歯科;口腔外科,0.0,,
89,472131,541,沖縄県,うるま市,金城歯科医院,キンジョウシカイイン,無床診療所,沖縄県うるま市喜仲1ｰ7‐19,,26.35736399,127.8459206,(098)974-5177,,,,,,,,,,,歯科;小児歯科,0.0,,
90,472131,545,沖縄県,うるま市,スマート歯科クリニック,スマートシカクリニック,無床診療所,沖縄県うるま市字具志川3008‐1,,26.35983933,127.8696486,(098)974-8311,,,,,,,,,,,歯科,0.0,,
91,472131,547,沖縄県,うるま市,スター歯科クリニック,スターシカクリニック,無床診療所,沖縄県うるま市字豊原下口原750　,,26.34851502,127.851223,(098)923-2188,,,,,,,,,,,歯科;小児歯科;歯科口腔外科,0.0,,
92,472131,548,沖縄県,うるま市,なごみ歯科クリニック,ナゴミシカクリニック,無床診療所,沖縄県うるま市石川東山1ｰ21‐13,,26.43516759,127.8361466,(098)964-3300,,,,,,,,,,,歯科;小児歯科,0.0,,
93,472131,572,沖縄県,うるま市,医療法人右納の会　ちねん歯科医院,チネンシカイイン,無床診療所,沖縄県うるま市字大田867‐10,,26.34533529,127.8713623,(098)973-7555,,,,,,,,,,,歯科;小児歯科;矯正歯科;歯科口腔外科,0.0,,
94,472131,576,沖縄県,うるま市,ふたば歯科クリニック,フタバシカクリニック,無床診療所,沖縄県うるま市高江洲1029‐3,上原ﾏｰﾄﾋﾞﾙ2階,26.35746939,127.8374187,(098)974-9993,,,,,,,,,,,歯科;小児歯科;矯正歯科;歯科口腔外科,0.0,,
95,472131,585,沖縄県,うるま市,アロハ・デンタルクリニック,アロハデンタルクリニック,無床診療所,沖縄県うるま市字江洲386　,,26.35239751,127.8273197,(098)988-5639,,,,,,,,,,,歯科;小児歯科;歯科口腔外科,0.0,,
96,472131,603,沖縄県,うるま市,アールデンタル,アールデンタル,無床診療所,沖縄県うるま市石川白浜2ｰ9‐12,,26.42454318,127.8260035,(098)965-3456,,,,,,,,,,,歯科;小児歯科;歯科口腔外科,0.0,,
97,472131,606,沖縄県,うるま市,なぎさ歯科医院　,ナギサシカイイン,無床診療所,沖縄県うるま市字塩屋402‐1,,26.34837631,127.85785,(098)974-6606,,,,,,,,,,,歯科;小児歯科;歯科口腔外科,0.0,,
1,473553,753,沖縄県,粟国村,特別養護老人ホームあぐに,トクベツヨウゴロウジンホームアグニ,無床診療所,沖縄県粟国村字東1796　,,26.58422486,127.2311919,(098)988-2082,,,,,,,,,,,内科;外科,0.0,,
2,473553,756,沖縄県,粟国村,沖縄県立南部医療センター・こども医療センター附属粟国診療所,オキナワケンリツナンブイリョウセンター・コドモイリョウセンターフゾクアグニシンリョウジョ,無床診療所,沖縄県粟国村字東573,,26.58179451,127.2277866,(098)988-2003,,,,,,,,,,,内科;外科;小児科,0.0,,
3,473553,1053,沖縄県,粟国村,粟国村歯科診療所,アグニソンシカシンリョウジョ,無床診療所,沖縄県粟国村東513‐1,及び東517‐11階,26.58166401,127.2301781,,,,,,,,,,,,歯科,0.0,,
1,473154,12,沖縄県,伊江村,特別養護老人ホームいえしま医務室,トクベツヨウゴロウジンホームイエシマイムシツ,無床診療所,沖縄県伊江村字東江前2303-1,,26.71092728,127.8251796,(0980)49-5502,,,,,,,,,,,内科;外科;精神科,0.0,,
2,473154,13,沖縄県,伊江村,伊江村立診療所,イエソンタチシンリョウジョ,無床診療所,沖縄県伊江村字東江前459　,,26.71199072,127.8066365,(0980)49-2054,,,,,,,,,,,内科;外科;小児科;整形外科;人工透析内科,0.0,,
3,473154,78,沖縄県,伊江村,伊江歯科医院,イエシカイイン,無床診療所,沖縄県伊江村字東江前459　,,26.71199072,127.8066365,(0980)49-2214,,,,,,,,,,,歯科;小児歯科,0.0,,
1,473600,14,沖縄県,伊是名村,沖縄県立北部病院附属伊是名診療所,オキナワケンリツホクブビョウインフゾクイゼナシンリョウジョ,無床診療所,沖縄県伊是名村字仲田1198　,,26.92796841,127.9406757,(0980)45-2017,,,,,,,,,,,内科;外科;小児科,0.0,,
2,473600,15,沖縄県,伊是名村,特別養護老人ホームチヂン園,トクベツヨウゴロウジンホームチヂンエン,無床診療所,沖縄県伊是名村字仲田1687-51,,26.92240794,127.9436172,(0980)45-2273,,,,,,,,,,,内科;外科,0.0,,
3,473600,79,沖縄県,伊是名村,伊是名村立歯科診療所,イゼナソンリツシカシンリョウジョ,無床診療所,沖縄県伊是名村字仲田1199-1,,26.92755734,127.9405173,(0980)45-2612,,,,,,,,,,,歯科,0.0,,
1,473596,16,沖縄県,伊平屋村,県立北部病院附属伊平屋診療所,ケンリツホクブビョウインフゾクイヒラヤシンリョウジョ,無床診療所,沖縄県伊平屋村字我喜屋217　,,27.03445215,127.9636025,(0980)46-2116,,,,,,,,,,,内科;外科;小児科,0.0,,
2,473596,80,沖縄県,伊平屋村,伊平屋村立歯科診療所,イヘヤソンタチシカシンリョウジョ,無床診療所,沖縄県伊平屋村字我喜屋217-3,,27.03456325,127.9638108,(0980)46-2853,,,,,,,,,,,歯科;小児歯科;矯正歯科,0.0,,
1,472085,631,沖縄県,浦添市,牧港中央病院,マキミナトチュウオウビョウイン,病院,沖縄県浦添市字牧港1199　,,26.26782468,127.7151954,(098)877-0575,,,,,,,,,,,"内科;循環器内科;心臓血管外科;人工透析内科;消化器内科;外科;
リハビリテーション科;麻酔科;腎臓内科;呼吸器内科;血管外科",0.0,,
2,472085,632,沖縄県,浦添市,嶺井第一病院,ミネイダイイチビョウイン,病院,沖縄県浦添市字大平466　,,26.24275172,127.7107743,(098)877-5806,,,,,,,,,,,耳鼻咽喉科;脳神経外科;内科;神経内科;整形外科;リハビリテーション科;放射線科;漢方内科;泌尿器科,0.0,,
3,472085,633,沖縄県,浦添市,社会医療法人仁愛会　 浦添総合病院,シャカイイリョウホウジンジンアイカイ　 ウラソエソウゴウビョウイン,病院,沖縄県浦添市伊祖4ｰ6‐1,,26.25454277,127.7231203,(098)878-0231,,,,,,,,,,,内科;循環器内科;呼吸器内科;消化器内科;消化器外科;小児科;外科;乳腺外科;肛門外科;整形外科;産科;婦人科;眼科;耳鼻咽喉科;脳神経外科;麻酔科;放射線科;形成外科;アレルギー科;リハビリテーション科;歯科;歯科口腔外科;心臓血管外科;呼吸器外科;食道外科;神経内科;腎臓内科;病理診断科;救急科;腎;泌尿器科,0.0,,
4,472085,634,沖縄県,浦添市,医療法人八重瀬会　　同仁病院,イリョウホウジンヤエセカイ　　ドウジンビョウイン,病院,沖縄県浦添市城間1-37-12,,26.25593103,127.7081962,(098)876-2212,,,,,,,,,,,内科;小児科;外科;整形外科;泌尿器科;皮膚科;歯科;歯科口腔外科;リハビリテーション科;麻酔科;形成外科;循環器内科;呼吸器内科;消化器内科;消化器外科;肛門外科;腎臓内科;放射線科;精神科,0.0,,
5,472085,635,沖縄県,浦添市,平安病院,ヒラヤスビョウイン,病院,沖縄県浦添市字経塚346,,26.23519451,127.7242236,(098)877-6467,,,,,,,,,,,精神科;心療内科;内科;小児科,0.0,,
6,472085,637,沖縄県,浦添市,嶺井リハビリ病院,ミネイリハビリビョウイン,病院,沖縄県浦添市牧港3ｰ1‐10,,26.26006742,127.7276115,(098)874-0100,,,,,,,,,,,内科;呼吸器内科;リハビリテーション科,0.0,,
7,472085,638,沖縄県,浦添市,沖縄療育園,オキナワリョウイクエン,病院,沖縄県浦添市経塚714　,,26.23697493,127.7254234,(098)877-3478,,,,,,,,,,,内科;小児科;整形外科,0.0,,
8,472085,745,沖縄県,浦添市,浦添中央医院,ウラソエチュウオウイイン,無床診療所,沖縄県浦添市安波茶1-21-27,,26.24641,127.7190764,(098)877-1611,,,,,,,,,,,胃腸科;外科;整形外科;皮膚科;泌尿器科;内科;小児科,0.0,,
9,472085,746,沖縄県,浦添市,末吉内科外科胃腸科医院,スエヨシナイカゲカイチョウカイイン,有床診療所,沖縄県浦添市内間4ｰ1‐18,,26.23880465,127.7051081,(098)878-2271,,,,,,,,,,,胃腸科;外科;整形外科;皮膚科;泌尿器科;肛門科;リハビリテーション科;麻酔科;内科,0.0,,
10,472085,747,沖縄県,浦添市,丸勝中央クリニック,マルマサルチュウオウクリニック,有床診療所,沖縄県浦添市大平1-28-1,,26.24793736,127.7102713,(098)878-5500,,,,,,,,,,,外科;整形外科;胃腸内科;皮膚科;肛門外科,0.0,,
11,472085,748,沖縄県,浦添市,内科小児科なかざとクリニック,ナイカショウニカナカザトクリニック,無床診療所,沖縄県浦添市城間3-2-2,,26.25689223,127.7130459,(098)875-1126,,,,,,,,,,,内科;循環器科;呼吸器科;消化器科;小児科;皮膚科;リハビリテーション科,0.0,,
12,472085,749,沖縄県,浦添市,たから小児科医院,タカラショウニカイイン,無床診療所,沖縄県浦添市大平1ｰ36‐5,,26.24708185,127.7093325,(098)878-8777,,,,,,,,,,,小児科;内科;耳鼻咽喉科;精神科;泌尿器科;皮膚科,0.0,,
13,472085,750,沖縄県,浦添市,バークレー整形外科スポーツクリニック,バークレーセイケイゲカスポーツクリニック,無床診療所,沖縄県浦添市当山2ｰ2‐11,201,26.25268774,127.7383969,(098)879-8666,,,,,,,,,,,整形外科;外科;内科;リハビリテーション科,0.0,,
14,472085,751,沖縄県,浦添市,なかそね内科循環器科,ナカソネナイカジュンカンキカ,無床診療所,沖縄県浦添市内間4-1-2,,26.2380797,127.7046276,(098)874-1155,,,,,,,,,,,内科;循環器科;呼吸器科;消化器科,0.0,,
15,472085,754,沖縄県,浦添市,ティーダこどもクリニック,ティーダコドモクリニック,無床診療所,沖縄県浦添市城間4ｰ3‐10-1,,26.25592847,127.7145958,(098)873-2020,,,,,,,,,,,小児科;内科;心療内科;アレルギー科;整形外科;皮膚科,0.0,,
16,472085,755,沖縄県,浦添市,医療法人　豊誠会　牧港クリニック,イリョウホウジン　ユタカマコトカイ　マキミナトクリニック,有床診療所,沖縄県浦添市牧港4-24-7,,26.26495868,127.7286168,(098)871-1500,,,,,,,,,,,麻酔科;ペインクリニック内科;整形外科;リハビリテーション科,0.0,,
17,472085,757,沖縄県,浦添市,池村クリニック,イケムラクリニック,無床診療所,沖縄県浦添市伊祖3ｰ13‐8,,26.2562342,127.7201177,(098)869-5762,,,,,,,,,,,外科;胃腸科;肛門科;内科,0.0,,
18,472085,758,沖縄県,浦添市,医療法人　エイチ・エス・アール　名嘉村クリニック,イリョウホウジン　エイチ・エス・アール　ナカムラクリニック,有床診療所,沖縄県浦添市伊祖4ｰ2‐1,201,26.2539705,127.7204316,(098)870-6600,,,,,,,,,,,内科;呼吸器科;循環器科;精神科;消化器科;小児科;リハビリテーション科;アレルギー科;呼吸器外科,0.0,,
19,472085,759,沖縄県,浦添市,浦添協同クリニック,ウラソエキョウドウクリニック,無床診療所,沖縄県浦添市宮城3ｰ1‐5,ｻﾝﾊｲﾂN201号,26.24628463,127.7075021,(098)870-8060,,,,,,,,,,,内科;小児科;外科,0.0,,
20,472085,760,沖縄県,浦添市,みどり耳鼻咽喉科,ミドリジビインコウカ,無床診療所,沖縄県浦添市宮城4ｰ2‐1,,26.24479304,127.7059634,(098)874-7070,,,,,,,,,,,耳鼻咽喉科,0.0,,
21,472085,761,沖縄県,浦添市,東産婦人科クリニック ,ヒガシサンフジンカクリニック ,無床診療所,沖縄県浦添市安波茶1ｰ30‐17,,26.24812648,127.7180653,(098)878-9367,,,,,,,,,,,産科;婦人科,0.0,,
22,472085,762,沖縄県,浦添市,かじまやークリニック,カジマヤークリニック,無床診療所,沖縄県浦添市字前田997,,26.23766939,127.7285676,(098)871-0818,,,,,,,,,,,内科;小児科;リハビリテーション科,0.0,,
23,472085,763,沖縄県,浦添市,浦西医院,ウラニシイイン,無床診療所,沖縄県浦添市当山2ｰ9-3,,26.24866031,127.7377527,(098)878-7070,,,,,,,,,,,内科;小児科;皮膚科;外科,0.0,,
24,472085,764,沖縄県,浦添市,浦添セレブクリニック胃腸科・内科,ウラソエセレブクリニックイチョウカ・ナイカ,無床診療所,沖縄県浦添市城間2-7-1,101,26.255384,127.7123432,(098)871-0123,,,,,,,,,,,胃腸科;内科,0.0,,
25,472085,765,沖縄県,浦添市,みゆき小児科,ミユキショウニカ,無床診療所,沖縄県浦添市前田3ｰ3‐8,103号,26.24494398,127.7381083,(098)878-5828,,,,,,,,,,,小児科,0.0,,
26,472085,766,沖縄県,浦添市,徳山内科医院,トクヤマナイカイイン,無床診療所,沖縄県浦添市大平1-1-11,,26.24932353,127.715732,(098)875-8700,,,,,,,,,,,内科;リウマチ科;小児科,0.0,,
27,472085,767,沖縄県,浦添市,補聴相談のひろば,ホチョウソウダンノヒロバ,無床診療所,沖縄県浦添市仲間1-2-6,,26.24830987,127.720204,(098)879-3952,,,,,,,,,,,耳鼻咽喉科,0.0,,
28,472085,768,沖縄県,浦添市,医療法人清心会　徳山クリニック,イリョウホウジンチョンシンカイ　トクヤマクリニック,無床診療所,沖縄県浦添市牧港2ｰ46‐12,102号,26.26532803,127.7259142,(098)942-1001,,,,,,,,,,,内科;循環器内科;リウマチ科;腎臓内科;人工透析内科,0.0,,
29,472085,769,沖縄県,浦添市,ロクト整形外科クリニック,ロクトセイケイゲカクリニック,無床診療所,沖縄県浦添市牧港2ｰ46‐12,202号,26.26532803,127.7259142,(098)878-6910,,,,,,,,,,,整形外科;リハビリテーション科,0.0,,
30,472085,770,沖縄県,浦添市,医療法人菜の花会　佐久田脳神経外科．外科,イリョウホウジンナノハナカイ　サクタノウシンケイゲカ．ゲカ,無床診療所,沖縄県浦添市牧港2ｰ46‐12,,26.26532803,127.7259142,(098)870-7677,,,,,,,,,,,脳神経外科;外科;内科;リハビリテーション科;放射線科,0.0,,
31,472085,777,沖縄県,浦添市,げんか耳鼻咽喉科,ゲンカジビインコウカ,無床診療所,沖縄県浦添市伊祖2-3-1,2F,26.25320926,127.7143237,(098)876-9500,,,,,,,,,,,耳鼻咽喉科;気管食道科,0.0,,
32,472085,778,沖縄県,浦添市,山本クリニック,ヤマモトクリニック,無床診療所,沖縄県浦添市伊祖2ｰ30‐7,101号,26.25331768,127.7174679,(098)879-3303,,,,,,,,,,,心療内科;神経科;精神科,0.0,,
33,472085,779,沖縄県,浦添市,くに整形外科,クニセイケイゲカ,無床診療所,沖縄県浦添市沢岻2ｰ2‐15,,26.23380832,127.7172575,(098)877-2660,,,,,,,,,,,整形外科;リハビテーション科;麻酔科;内科,0.0,,
34,472085,780,沖縄県,浦添市,社会医療法人仁愛会　浦添総合病院健診センター,シャカイイリョウホウジンジンアイカイ　ウラソエソウゴウビョウインケンシンセンター,無床診療所,沖縄県浦添市伊祖3ｰ42‐15,,26.25853961,127.7217203,(098)878-0231,,,,,,,,,,,内科;婦人科;歯科,0.0,,
35,472085,781,沖縄県,浦添市,かみやま皮フ科,カミヤマカワフカ,無床診療所,沖縄県浦添市牧港4ｰ2‐18,2F,26.26375876,127.7269364,(098)878-4112,,,,,,,,,,,皮膚科;美容皮膚科,0.0,,
36,472085,782,沖縄県,浦添市,あかみねクリニック,アカミネクリニック,無床診療所,沖縄県浦添市沢岻2-1-1,,26.23392501,127.7183879,(098)873-0071,,,,,,,,,,,内科;胃腸科;消化器科;小児科;皮膚科;リハビリテーション科,0.0,,
37,472085,783,沖縄県,浦添市,みやざと内科クリニック,ミヤザトナイカクリニック,無床診療所,沖縄県浦添市宮城2-17-1,,26.24752617,127.7070466,(098)875-7000,,,,,,,,,,,内科;呼吸器内科;消化器内科;循環器内科;アレルギー科;リウマチ科;腎臓内科（人工透析）,0.0,,
38,472085,784,沖縄県,浦添市,ちねん眼科,チネンガンカ,無床診療所,沖縄県浦添市前田1ｰ12‐7,,26.24281915,127.7369251,(098)875-1010,,,,,,,,,,,眼科,0.0,,
39,472085,785,沖縄県,浦添市,なかむら小児クリニック,ナカムラショウニクリニック,無床診療所,沖縄県浦添市宮城4ｰ15‐8,,26.24555678,127.7037468,(098)873-3900,,,,,,,,,,,小児科,0.0,,
40,472085,786,沖縄県,浦添市,バークレー内科,バークレーナイカ,無床診療所,沖縄県浦添市当山2ｰ2‐11,ﾊﾞｰｸﾚｰｽﾞﾒﾃﾞｨｶﾙﾓｰﾙ3F,26.25268774,127.7383969,(098)875-0890,,,,,,,,,,,内科;呼吸器科;消化器科;循環器科;小児科;外科;整形外科;皮膚科,0.0,,
41,472085,787,沖縄県,浦添市,下地内科,シモジナイカ,無床診療所,沖縄県浦添市宮城4ｰ2‐1,,26.24479304,127.7059634,(098)874-7007,,,,,,,,,,,内科;呼吸器内科;アレルギー科,0.0,,
42,472085,788,沖縄県,浦添市,かりまた内科医院,カリマタナイカイイン,有床診療所,沖縄県浦添市内間4ｰ23‐21,,26.2411849,127.7022998,(098)878-5126,,,,,,,,,,,内科;小児科;呼吸器科;循環器科;胃腸科;放射線科;リハビリテーション科;アレルギー科;リウマチ科,0.0,,
43,472085,789,沖縄県,浦添市,ぐるんぱ小児科,グルンパショウニカ,無床診療所,沖縄県浦添市当山2-2-11,4階,26.25268774,127.7383969,(098)871-1737,,,,,,,,,,,小児科;内科;産科,0.0,,
56,472085,806,沖縄県,浦添市,Naoko女性クリニック,ナオコジョセイクリニック,無床診療所,沖縄県浦添市経塚745‐7,経塚駅前医療ﾓｰﾙ2F,26.23545563,127.7258512,(098)988-9811,,,,,,,,,,,婦人科;漢方内科,0.0,,
44,472085,791,沖縄県,浦添市,みやぎ内科循環器科ファミリークリニック,ミヤギナイカジュンカンキカファミリークリニック,無床診療所,沖縄県浦添市伊祖2ｰ3‐6-1,,26.25388696,127.7140515,(098)871-3088,,,,,,,,,,,内科;循環器内科;消化器内科;呼吸器内科;小児科;皮膚科,0.0,,
45,472085,792,沖縄県,浦添市,ひがハートクリニック,ヒガハートクリニック,無床診療所,沖縄県浦添市港川2ｰ23‐2,,26.26470829,127.7148816,(098)875-4810,,,,,,,,,,,循環器内科;内科,0.0,,
46,472085,793,沖縄県,浦添市,稲福内科医院,イナフクナイカイイン,無床診療所,沖縄県浦添市経塚633　,ﾒﾃﾞｨｶﾙKﾌﾟﾗｻﾞ1F,26.23751365,127.7217876,(098)988-4556,,,,,,,,,,,内科;神経内科;整形外科;小児科;皮膚科,0.0,,
47,472085,794,沖縄県,浦添市,かもめクリニック,カモメクリニック,無床診療所,沖縄県浦添市経塚633　,ﾒﾃﾞｨｶﾙKﾌﾟﾗｻﾞ3F,26.23751365,127.7217876,(098)988-0326,,,,,,,,,,,精神科;心療内科;内科,0.0,,
48,472085,795,沖縄県,浦添市,向井わらびークリニック,ムカイワラビークリニック,無床診療所,沖縄県浦添市経塚633　,ﾒﾃﾞｨｶﾙﾌﾟﾗｻﾞ4F,26.23751365,127.7217876,(098)894-3646,,,,,,,,,,,小児科;内科;皮膚科,0.0,,
49,472085,796,沖縄県,浦添市,バークレーレディースクリニック,バークレーレディースクリニック,有床診療所,沖縄県浦添市当山2-2-11,ﾊﾞ-ｸﾚ-ｽﾞﾒﾃﾞｨｶﾙﾓｰﾙ5F,26.25268774,127.7383969,(098)873-1135,,,,,,,,,,,産科;婦人科,0.0,,
50,472085,797,沖縄県,浦添市,高宮城皮フ科,タカミヤギカワフカ,無床診療所,沖縄県浦添市字経塚676-1,101号,26.23776371,127.724479,,,,,,,,,,,,皮膚科;アレルギー科,0.0,,
51,472085,799,沖縄県,浦添市,バークレーいむろ心のクリニック,バークレーイムロココロノクリニック,無床診療所,沖縄県浦添市当山2ｰ2‐11,ﾊﾞ-ｸﾚ-ｽﾞﾒﾃﾞｨｶﾙﾓｰﾙ3階,26.25268774,127.7383969,(098)877-7700,,,,,,,,,,,心療内科;精神科,0.0,,
52,472085,800,沖縄県,浦添市,とぐち耳鼻咽喉科,トグチジビインコウカ,無床診療所,沖縄県浦添市牧港4ｰ2‐18,ｻﾞ･ｲｲﾄｳｸ1F,26.26375876,127.7269364,(098)873-3387,,,,,,,,,,,耳鼻咽喉科,0.0,,
53,472085,801,沖縄県,浦添市,しみず胃腸内科21,シミズイチョウナイカ21,無床診療所,沖縄県浦添市宮城6ｰ1‐15,浦添ﾒﾃﾞｨｶﾙﾌﾟﾗｻﾞ3F,26.24661244,127.7094159,(098)879-0021,,,,,,,,,,,内科;消化器内科;胃腸内科;内視鏡内科,0.0,,
54,472085,802,沖縄県,浦添市,砂辺　腎・泌尿器科,スナベ　ジン・ヒニョウキカ,無床診療所,沖縄県浦添市伊祖2ｰ2‐5,,26.25257041,127.7140904,(098)943-7773,,,,,,,,,,,泌尿器科;内科,0.0,,
55,472085,803,沖縄県,浦添市,大田クリニック,オオタクリニック,無床診療所,沖縄県浦添市経塚745‐7,経塚駅前医療ﾓｰﾙ2階,26.23545563,127.7258512,(098)871-1234,,,,,,,,,,,心療内科;精神科,0.0,,
57,472085,810,沖縄県,浦添市,マンマ家クリニック,マンマケクリニック,無床診療所,沖縄県浦添市経塚633　,ﾒﾃﾞｨｶﾙKﾌﾟﾗｻﾞ2階,26.23751365,127.7217876,(098)988-4141,,,,,,,,,,,乳腺;甲状腺科;外科,0.0,,
58,472085,811,沖縄県,浦添市,医療法人ガレンの会　浦添さかい眼科,イリョウホウジンガレンノカイ　ウラソエサカイガンカ,無床診療所,沖縄県浦添市宮城6ｰ1‐21,2階,26.24610688,127.7079076,(098)988-1376,,,,,,,,,,,眼科,0.0,,
59,472085,814,沖縄県,浦添市,てぃーら整形外科,ティーラセイケイゲカ,無床診療所,沖縄県浦添市屋富祖3ｰ34‐2,ﾒﾃﾞｨｶﾙﾌﾟﾗｻﾞたろう2F,26.25212289,127.704191,(098)874-7766,,,,,,,,,,,整形外科;リハビリテーション科;ペインクリニック整形外科,0.0,,
60,472085,815,沖縄県,浦添市,なしろハルンクリニック,ナシロハルンクリニック,無床診療所,沖縄県浦添市屋富祖3ｰ34‐2,ﾒﾃﾞｨｶﾙﾌﾟﾗｻﾞたろう3F,26.25212289,127.704191,(098)877-7777,,,,,,,,,,,泌尿器科;皮膚科;内科,0.0,,
61,472085,820,沖縄県,浦添市,特別養護老人ホーム　第二ありあけの里　医務室,トクベツヨウゴロウジンホーム　ダイニアリアケノサト　イムシツ,無床診療所,沖縄県浦添市仲西2ｰ4‐21,,26.24528446,127.7003387,(098)875-2800,,,,,,,,,,,内科,0.0,,
62,472085,822,沖縄県,浦添市,牧港眼科,マキミナトガンカ,無床診療所,沖縄県浦添市牧港4ｰ2‐20,,26.26352822,127.7270031,(098)879-2114,,,,,,,,,,,眼科,0.0,,
63,472085,825,沖縄県,浦添市,まちなと内科在宅クリニック　,マチナトナイカザイタククリニック　,無床診療所,沖縄県浦添市牧港2ｰ46‐8,,26.26509748,127.7253448,(098)875-8888,,,,,,,,,,,内科;老年内科;呼吸器内科;循環器内科,0.0,,
64,472085,829,沖縄県,浦添市,さくだ内科クリニック,サクダナイカクリニック,無床診療所,沖縄県浦添市字経塚585‐1,,26.23349179,127.7209739,(098)878-2500,,,,,,,,,,,内科;糖尿病内科;腎臓内科;人工透析内科;リウマチ科,0.0,,
65,472085,830,沖縄県,浦添市,まちなと小児（こども）クリニック,マチナトショウニ（コドモ）クリニック,無床診療所,沖縄県浦添市牧港2ｰ46-12,ﾒﾃﾞｨｶﾙﾌﾟﾗｻﾞ牧港4階,26.26532803,127.7259142,(098)942-1110,,,,,,,,,,,小児科,0.0,,
66,472085,831,沖縄県,浦添市,南斗クリニック,ミナミトクリニック,無床診療所,沖縄県浦添市城間3ｰ3‐7,,26.2579449,127.7126015,(098)988-3208,,,,,,,,,,,心療内科;精神科;内科,0.0,,
67,472085,832,沖縄県,浦添市,楠見耳鼻咽喉科,クスミジビインコウカ,無床診療所,沖縄県浦添市字前田1149‐14,,26.23913043,127.7307452,(098)875-7111,,,,,,,,,,,耳鼻咽喉科;形成外科,0.0,,
68,472085,833,沖縄県,浦添市,具志堅循環器・内科,グシケンジュンカンキ・ナイカ,無床診療所,沖縄県浦添市字前田1152‐1,,26.23950263,127.7313257,(098)875-0007,,,,,,,,,,,内科;循環器内科,0.0,,
69,472085,835,沖縄県,浦添市,たつや整形外科,タツヤセイケイゲカ,無床診療所,沖縄県浦添市宮城6ｰ1‐15,浦添ﾒﾃﾞｨｶﾙﾌﾟﾗｻﾞ2F,26.24661244,127.7094159,(098)878-2525,,,,,,,,,,,整形外科;リハビリテーション科,0.0,,
70,472085,838,沖縄県,浦添市,城間クリニック,シロマクリニック,無床診療所,沖縄県浦添市字前田564-1,,26.23914435,127.7318867,(098)878-8213,,,,,,,,,,,"心療内科;精神科;内科;神経内科
",0.0,,
71,472085,839,沖縄県,浦添市,みやざと整形クリニック経塚駅前,ミヤザトセイケイクリニックキョウヅカエキマエ,無床診療所,沖縄県浦添市経塚745‐7,経塚駅前医療ﾓｰﾙ1階,26.23545563,127.7258512,(098)879-8800,,,,,,,,,,,整形外科;リハビリテーション科;ペインクリニック外科,0.0,,
72,472085,841,沖縄県,浦添市,医療法人　蒼海の会　まえだクリニック,イリョウホウジン　ソウカイノカイ　マエダクリニック,無床診療所,沖縄県浦添市前田1-48-8,浦西ｶﾞｰﾃﾞﾝﾋﾞﾙ1F,26.23811128,127.737928,(098)917-5542,,,,,,,,,,,精神科;心療内科;内科;外科,0.0,,
73,472085,842,沖縄県,浦添市,宮良クリニック,ミヤラクリニック,無床診療所,沖縄県浦添市伊祖2ｰ3‐1,ｻﾝﾁｬｲﾙﾄﾞめぐみ2　202号,26.25320926,127.7143237,,,,,,,,,,,,乳腺外科;外科,0.0,,
74,472085,847,沖縄県,浦添市,キンザー前クリニック,キンザーマエクリニック,無床診療所,沖縄県浦添市宮城1ｰ29‐1,1階,26.25059518,127.7023106,(098)963-9010,,,,,,,,,,,内科;糖尿病;代謝内科,0.0,,
75,472085,848,沖縄県,浦添市,新里眼科医院,シンザトガンカイイン,無床診療所,沖縄県浦添市宮城5-7-5,,26.2434153,127.7036441,,,,,,,,,,,,眼科,0.0,,
76,472085,852,沖縄県,浦添市,特別養護老人ホーム　ありあけの里　医務室,トクベツヨウゴロウジンホーム　アリアケノサト　イムシツ,無床診療所,沖縄県浦添市字前田997,,26.23766939,127.7285676,,,,,,,,,,,,内科,0.0,,
77,472085,855,沖縄県,浦添市,比嘉眼科,ヒガガンカ,有床診療所,沖縄県浦添市城間4-34-20,,26.26010863,127.7131041,(098)876-2515,,,,,,,,,,,眼科,0.0,,
78,472085,858,沖縄県,浦添市,医療法人八重瀬会　浦添医院,イリョウホウジンヤエセカイ　ウラソエイイン,無床診療所,沖縄県浦添市大平3-16-10,"南棟1,2階",26.24357408,127.7170766,(098)878-7381,,,,,,,,,,,内科;外科;整形外科,0.0,,
79,472085,868,沖縄県,浦添市,うみそら眼科　,ウミソラガンカ　,無床診療所,沖縄県浦添市西洲3ｰ1‐1,ｻﾝｴｰ浦添西海岸PARCOCITY3階,26.26202462,127.6985189,,,,,,,,,,,,眼科,0.0,,
80,472085,869,沖縄県,浦添市,アイビーホームケアクリニック　 　,アイビーホームケアクリニック　 　,無床診療所,沖縄県浦添市西原6-30-10,ｱｲﾋﾞ-ﾃﾗｽ浦西B03,26.2449664,127.7457549,(098)917-1110,,,,,,,,,,,内科,0.0,,
81,472085,871,沖縄県,浦添市,耳鼻咽喉科　頭頸部外科　さきはまクリニック,ジビインコウカ　トウケイブゲカ　サキハマクリニック,無床診療所,沖縄県浦添市経塚585-1,2F,26.23349179,127.7209739,(098)873-3300,,,,,,,,,,,耳鼻咽喉科;頭頸部外科,0.0,,
82,472085,874,沖縄県,浦添市,発達相談クリニックそえ～る,ハッタツソウダンクリニックソエ～ル,無床診療所,沖縄県浦添市牧港4ｰ5‐10,浦添市障がい福祉関連複合施設4階,26.26448649,127.7281724,,,,,,,,,,,,精神科;小児科,0.0,,
83,472085,881,沖縄県,浦添市,くららクリニック,クララクリニック,無床診療所,沖縄県浦添市大平1ｰ23‐13,1階,26.24875122,127.7116268,(098)876-9811,,,,,,,,,,,心療内科;内科;精神科;皮膚科,0.0,,
84,472085,883,沖縄県,浦添市,浦添伊祖皮膚科,ウラソエイソヒフカ,無床診療所,沖縄県浦添市伊祖2ｰ1‐3,3F,26.25150107,127.7144932,(098)875-1177,,,,,,,,,,,皮膚科,0.0,,
85,472085,884,沖縄県,浦添市,サンパーク胃腸内科クリニック,サンパークイチョウナイカクリニック,無床診療所,沖縄県浦添市伊祖2-1-3,ﾒﾃﾞｨｶﾙﾌﾟﾚｲｽ伊祖5F,26.25150107,127.7144932,,,,,,,,,,,,内科;胃腸内科;消化器内科,0.0,,
86,472085,885,沖縄県,浦添市,ありんクリニック小児科,アリンクリニックショウニカ,無床診療所,沖縄県浦添市伊祖2ｰ1‐3,4階,26.25150107,127.7144932,(098)874-2020,,,,,,,,,,,小児科,0.0,,
87,472085,886,沖縄県,浦添市,さくがわクリニック,サクガワクリニック,無床診療所,沖縄県浦添市前田1-11-1,ｻﾝｼｬﾄ-ﾚ前田1F,26.24333572,127.7350753,,,,,,,,,,,,放射線科;整形外科,0.0,,
88,472085,893,沖縄県,浦添市,幸喜内科　糖尿病・甲状腺クリニック,コウキナイカ　トウニョウビョウ・コウジョウセンクリニック,無床診療所,沖縄県浦添市前田2ｰ1517,,26.24455499,127.7331032,,,,,,,,,,,,内科;糖尿病内科;内分泌内科;代謝内科;脂質代謝内科;小児科,0.0,,
89,472085,897,沖縄県,浦添市,新型コロナウイルスワクチン巡回診療所,シンガタコロナウイルスワクチンジュンカイシンリョウジョ,無床診療所,沖縄県浦添市仲間1ｰ8‐1,,26.2490959,127.7197762,(098)875-2100,,,,,,,,,,,,0.0,,
90,472085,966,沖縄県,浦添市,医療法人なかわか　くくる歯科医院,イリョウホウジンナカワカ　ククルシカイイン,無床診療所,沖縄県浦添市字経塚600　,,26.23424173,127.7213766,(098)943-9968,,,,,,,,,,,歯科;小児歯科;歯科口腔外科,0.0,,
91,472085,970,沖縄県,浦添市,高良歯科医院,タカラシカイイン,無床診療所,沖縄県浦添市屋富祖1-2-10,,26.25147879,127.7124905,(098)879-0849,,,,,,,,,,,歯科,0.0,,
92,472085,971,沖縄県,浦添市,高宮城歯科医院,タカミヤギシカイイン,無床診療所,沖縄県浦添市牧港1-31-20,,26.26475301,127.7230256,(098)877-3621,,,,,,,,,,,歯科,0.0,,
93,472085,972,沖縄県,浦添市,しろま歯科医院,シロマシカイイン,無床診療所,沖縄県浦添市屋富祖1-3-6,,26.25234812,127.7113878,(098)878-6121,,,,,,,,,,,歯科,0.0,,
94,472085,973,沖縄県,浦添市,伊禮歯科医院,イレイシカイイン,無床診療所,沖縄県浦添市屋富祖3-7-3,,26.25362836,127.7057242,(098)877-9039,,,,,,,,,,,歯科;歯科口腔外科;小児歯科;矯正歯科,0.0,,
95,472085,974,沖縄県,浦添市,三愛歯科医院,サンアイシカイイン,無床診療所,沖縄県浦添市勢理客1-2-28,,26.24300133,127.7004443,(098)876-1203,,,,,,,,,,,歯科;小児歯科,0.0,,
96,472085,975,沖縄県,浦添市,ちはる歯科クリニック,チハルシカクリニック,無床診療所,沖縄県浦添市字仲間3-3-9,,26.24516036,127.7281452,(098)877-6480,,,,,,,,,,,歯科;小児歯科;矯正歯科,0.0,,
97,472085,978,沖縄県,浦添市,歯ならび矯正クリニック,ハナラビキョウセイクリニック,無床診療所,沖縄県浦添市宮城1ｰ26‐8,平安ﾋﾞﾙ203号,26.25152014,127.7034161,(098)875-4187,,,,,,,,,,,歯科,0.0,,
98,472085,979,沖縄県,浦添市,ラビット歯科,ラビットシカ,無床診療所,沖縄県浦添市屋富祖1-5-2,,26.24955393,127.7116462,(098)876-0045,,,,,,,,,,,歯科,0.0,,
99,472085,980,沖縄県,浦添市,サンタ歯科,サンタシカ,無床診療所,沖縄県浦添市港川2-22-1,,26.26396388,127.7142956,(098)942-1988,,,,,,,,,,,歯科;小児歯科,0.0,,
100,472085,981,沖縄県,浦添市,にこにこ歯科・小児歯科,ニコニコシカ・ショウニシカ,無床診療所,沖縄県浦添市当山2ｰ9-3,,26.24866031,127.7377527,(098)873-2525,,,,,,,,,,,歯科;小児歯科;矯正歯科,0.0,,
1,472115,116,沖縄県,沖縄市,沖縄中部療育医療センター,オキナワチュウブリョウイクイリョウセンター,病院,沖縄県沖縄市比屋根5ｰ2‐17,,26.31275404,127.8191016,(098)932-6077,,,,,,,,,,,小児科;内科;リハビリテーション科;整形外科,0.0,,
2,472115,122,沖縄県,沖縄市,医療法人卯の会　新垣病院,イリョウホウジンウノカイ　シンガキビョウイン,病院,沖縄県沖縄市安慶田4ｰ10‐3,,26.32888839,127.810777,(098)933-2756,,,,,,,,,,,精神科;心療内科,0.0,,
3,472115,127,沖縄県,沖縄市,沖縄中央病院　,オキナワチュウオウビョウイン　,病院,沖縄県沖縄市知花5ｰ26‐1,,26.36516273,127.8106762,(098)938-3188,,,,,,,,,,,精神科;心療内科,0.0,,
4,472115,130,沖縄県,沖縄市,医療法人タピック　沖縄リハビリテーションセンター病院,イリョウホウジンタピック　オキナワリハビリテーションセンタービョウイン,病院,沖縄県沖縄市比屋根2ｰ15‐1,,26.31477062,127.8240816,(098)982-1777,,,,,,,,,,,リハビリテーション科;内科;脳神経外科;整形外科;精神科,0.0,,
5,472115,133,沖縄県,沖縄市,翔南病院,ショウミナミビョウイン,病院,沖縄県沖縄市山内3ｰ14‐28,,26.32736284,127.7821208,(098)930-3020,,,,,,,,,,,内科;循環器内科;リハビリテーション科;泌尿器科;皮膚科;整形外科;糖尿病;内分泌内科;消化器内科,0.0,,
6,472115,134,沖縄県,沖縄市,医療法人心和会　潮平病院,イリョウホウジンシンワカイ　シオヒラビョウイン,病院,沖縄県沖縄市胡屋1ｰ17‐1,,26.33620972,127.802858,(098)937-2054,,,,,,,,,,,内科;外科;小児科;整形外科;リハビリテーション科;泌尿器科,0.0,,
7,472115,135,沖縄県,沖縄市,ちゅうざん病院,チュウザンビョウイン,病院,沖縄県沖縄市松本6ｰ2‐1,,26.35472201,127.8097404,(098)982-1346,,,,,,,,,,,リハビリテーション科,0.0,,
8,472115,141,沖縄県,沖縄市,社会医療法人敬愛会　中頭病院　,シャカイイリョウホウジンケイアイカイ　ナカガミビョウイン　,病院,沖縄県沖縄市字登川610　,,26.36636834,127.8256889,(098)939-1300,,,,,,,,,,,内科;循環器内科;消化器内科;呼吸器内科;感染症内科;血液腫瘍内科;内分泌;代謝内科（糖尿病）;腎臓内科（人工透析）;神経内科;外科;消化器外科;肛門外科;呼吸器外科;乳腺外科;心臓血管外科;脳神経外科;整形外科;形成外科;産婦人科;小児科;小児外科;泌尿器科;眼科;耳鼻いんこう科;頭頸部外科;麻酔科（上川務恵）;病理診断科;放射線科;救急科;リハビリテーション科;血管外科;皮膚科;ペインクリニック内科,0.0,,
20,472115,188,沖縄県,沖縄市,一般社団法人日本健康倶楽部　沖縄支部診療所,ニホンケンコウクラブ　オキナワシブシンリョウショ,無床診療所,沖縄県沖縄市字登川3169　,,26.37543391,127.8122008,(098)939-4026,,,,,,,,,,,内科;眼科,0.0,,
9,472115,142,沖縄県,沖縄市,中部協同病院　,チュウブキョウドウビョウイン　,病院,沖縄県沖縄市美里1ｰ31‐15,,26.34248996,127.8167735,(098)938-8828,,,,,,,,,,,内科;外科;小児科;整形外科;呼吸器内科;消化器内科;循環器内科;肛門外科;気管食道外科;放射線科;心臓血管外科;歯科;小児歯科;矯正歯科;リハビリテーション科;リウマチ科;精神科;心療内科;婦人科;皮膚科;泌尿器科;脳神経外科;形成外科;神経内科,0.0,,
10,472115,153,沖縄県,沖縄市,沖縄一条園診療所,オキナワイチジョウエンシンリョウショ,無床診療所,沖縄県沖縄市与儀3ｰ5‐10,,26.31007368,127.816263,(098)932-9376,,,,,,,,,,,内科,0.0,,
11,472115,156,沖縄県,沖縄市,特別養護老人ホーム緑樹園医務室,トクベツヨウゴロウジンホームリョクジュエンイムシツ,無床診療所,沖縄県沖縄市胡屋7ｰ2‐10,,26.32563039,127.8111714,(098)933-1205,,,,,,,,,,,内科,0.0,,
12,472115,161,沖縄県,沖縄市,伊元小児科,イモトショウニカ,無床診療所,沖縄県沖縄市泡瀬4ｰ39‐12,,26.31388747,127.8288562,(098)938-6112,,,,,,,,,,,内科;小児科;皮膚科,0.0,,
13,472115,164,沖縄県,沖縄市,医療法人高徳会　松永眼科医院,マツナガガンカイイン,有床診療所,沖縄県沖縄市美里2ｰ10‐2,,26.3446647,127.8139014,(098)938-7271,,,,,,,,,,,眼科,0.0,,
14,472115,165,沖縄県,沖縄市,大城内科医院,オオシロナイカイイン,無床診療所,沖縄県沖縄市照屋5ｰ19‐6,,26.32991342,127.8168765,(098)938-3100,,,,,,,,,,,内科;小児科,0.0,,
15,472115,168,沖縄県,沖縄市,医療法人藤真会　プラザクリニック,プラザクリニック,有床診療所,沖縄県沖縄市久保田1ｰ10‐5,,26.32213864,127.7940395,(098)933-5719,,,,,,,,,,,内科;消化器科;胃腸科;整形外科;肛門科;理学療法科;心療内科;精神科,0.0,,
16,472115,176,沖縄県,沖縄市,ふくはら小児科医院,フクハラショウンカイイン,無床診療所,沖縄県沖縄市泡瀬2ｰ8‐7,,26.31797047,127.8319697,(098)934-1115,,,,,,,,,,,小児科;内科;皮膚科,0.0,,
17,472115,182,沖縄県,沖縄市,医療法人ゆうな会　なかいま耳鼻咽喉科,ナカイマジビインコウカ,無床診療所,沖縄県沖縄市胡屋1ｰ13‐15,,26.33494871,127.8020636,(098)937-5555,,,,,,,,,,,耳鼻咽喉科;気管食道科,0.0,,
18,472115,184,沖縄県,沖縄市,いまい整形外科医院,イマイセイケイゲカイイン,無床診療所,沖縄県沖縄市知花6ｰ23‐22,,26.36428786,127.8147981,(098)939-1100,,,,,,,,,,,整形外科;理学診療科,0.0,,
19,472115,187,沖縄県,沖縄市,アワセ第一医院,アワセダイイチイイン,無床診療所,沖縄県沖縄市泡瀬2ｰ54‐26,,26.31654293,127.8368526,(098)937-5536,,,,,,,,,,,内科;小児科;皮膚科;呼吸器科;胃腸科;循環器科;気管食道科;外科,0.0,,
46,472115,241,沖縄県,沖縄市,元美皮フ科,モトミカワフカ,無床診療所,沖縄県沖縄市登川1ｰ12‐13,,26.36917356,127.8199143,(098)929-4112,,,,,,,,,,,皮膚科,0.0,,
21,472115,190,沖縄県,沖縄市,美原クリニック,ミハラクリニック,無床診療所,沖縄県沖縄市字松本921　,,26.35234186,127.8203258,(098)938-1500,,,,,,,,,,,内科;循環器科;小児科;皮膚科;泌尿器科,0.0,,
22,472115,195,沖縄県,沖縄市,仲宗根クリニック,ナカソネクリニック,無床診療所,沖縄県沖縄市高原7ｰ23‐14,,26.31782866,127.8245454,(098)933-8000,,,,,,,,,,,内科;外科;消化器科;肛門科;理学診療科,0.0,,
23,472115,200,沖縄県,沖縄市,アイクリニック中の町,アイクリニックナカノマチ,無床診療所,沖縄県沖縄市上地1ｰ11‐2,ﾖｼﾋﾗ2階,26.33364043,127.798625,(098)930-2812,,,,,,,,,,,眼科,0.0,,
24,472115,201,沖縄県,沖縄市,つかやま耳鼻咽喉科,ツカヤマジビインコウカ,無床診療所,沖縄県沖縄市南桃原4ｰ28‐10,,26.32849047,127.7804514,(098)933-8733,,,,,,,,,,,耳鼻咽喉科,0.0,,
25,472115,202,沖縄県,沖縄市,みさと耳鼻科,ミサトジビカ,無床診療所,沖縄県沖縄市美原4ｰ1‐15,,26.35178076,127.8180677,(098)939-8733,,,,,,,,,,,耳鼻咽喉科,0.0,,
26,472115,207,沖縄県,沖縄市,東部クリニック,トウブクリニック,無床診療所,沖縄県沖縄市与儀3ｰ9‐1,,26.30768778,127.8152104,(098)932-0111,,,,,,,,,,,内科;脳神経外科;リハビリテ－ション科;放射線科;整形外科;脳神経内科,0.0,,
27,472115,210,沖縄県,沖縄市,愛聖クリニック,アイセイクリニック,無床診療所,沖縄県沖縄市高原5ｰ15‐11,,26.32255884,127.8289088,(098)939-5114,,,,,,,,,,,内科;循環器科;呼吸器科;消化器科;小児科;皮膚科;アレルギー科;リハビリテーション科;精神科,0.0,,
28,472115,211,沖縄県,沖縄市,ふくはら胃腸科外科,フクハライチョウカゲカ,無床診療所,沖縄県沖縄市美里仲原町26‐5,,26.34447048,127.8264033,(098)921-0001,,,,,,,,,,,胃腸科;外科;リハビリテ－ション科;整形外科;肛門科;小児科,0.0,,
29,472115,212,沖縄県,沖縄市,岸本内科クリニック,キシモトナイカクリニック,無床診療所,沖縄県沖縄市登川1ｰ1‐24,,26.36731816,127.8184283,(098)934-7770,,,,,,,,,,,内科;小児科;皮膚科;呼吸器科;循環器科;胃腸科;アレルギー科,0.0,,
30,472115,213,沖縄県,沖縄市,美里ヒフ科,ミサトヒフカ,無床診療所,沖縄県沖縄市東2ｰ5‐14,,26.34743128,127.8247395,(098)939-7241,,,,,,,,,,,皮膚科,0.0,,
31,472115,216,沖縄県,沖縄市,特別養護老人ホームおきなわ長寿苑医務室,トクベツヨウゴロウジンホームオキナワチョウジュソノイムシツ,無床診療所,沖縄県沖縄市字登川1403　,,26.37518686,127.8233194,(098)939-4165,,,,,,,,,,,内科,0.0,,
32,472115,219,沖縄県,沖縄市,うえはら眼科,ウエハラガンカ,無床診療所,沖縄県沖縄市高原2ｰ4‐17,,26.32706922,127.8147656,(098)930-3100,,,,,,,,,,,眼科,0.0,,
85,472115,378,沖縄県,沖縄市,諸見眼科,モロミガンカ,無床診療所,沖縄県沖縄市園田3ｰ8‐27,,26.32712149,127.7939449,(098)933-2255,,,,,,,,,,,眼科,0.0,,
33,472115,220,沖縄県,沖縄市,うちま内科,ウチマナイカ,無床診療所,沖縄県沖縄市宮里4ｰ2‐3,,26.34139296,127.8231203,(098)934-7500,,,,,,,,,,,内科;循環器科;呼吸器科;消化器科;リウマチ科,0.0,,
34,472115,221,沖縄県,沖縄市,はなしろ小児科,ハナシロショウニカ,無床診療所,沖縄県沖縄市南桃原3ｰ36‐13,,26.32478807,127.7818181,(098)930-5177,,,,,,,,,,,小児科,0.0,,
35,472115,222,沖縄県,沖縄市,とけし内科,トケシナイカ,無床診療所,沖縄県沖縄市東2ｰ5‐11,,26.34763126,127.824545,(098)937-1515,,,,,,,,,,,内科;消化器科;循環器科,0.0,,
36,472115,223,沖縄県,沖縄市,コザクリニック,コザクリニック,無床診療所,沖縄県沖縄市仲宗根町19‐1,,26.33450434,127.8030358,(098)938-1038,,,,,,,,,,,内科;神経内科;リハビリテーション科,0.0,,
37,472115,225,沖縄県,沖縄市,富名腰医院,フナコシイイン,無床診療所,沖縄県沖縄市住吉1ｰ5‐16,,26.33813191,127.8097074,(098)938-2936,,,,,,,,,,,内科;皮膚科,0.0,,
38,472115,227,沖縄県,沖縄市,医療法人真愛会　伊佐整形外科,イサセイケイゲカ,無床診療所,沖縄県沖縄市比屋根2ｰ3‐3,,26.31655936,127.8257065,(098)931-1111,,,,,,,,,,,整形外科;リハビリテーション科;リウマチ科,0.0,,
39,472115,228,沖縄県,沖縄市,ひが内科クリニック,ヒガナイカクリニック,無床診療所,沖縄県沖縄市東2ｰ25‐2,ｺｰﾎﾟ桑江1階,26.34610919,127.825245,(098)929-1810,,,,,,,,,,,内科;循環器科;小児科,0.0,,
40,472115,231,沖縄県,沖縄市,やんハーブクリニック,ヤンハーブクリニック,無床診療所,沖縄県沖縄市東2ｰ16‐5,,26.34279006,127.8243313,(098)939-8877,,,,,,,,,,,小児科;内科;皮膚科,0.0,,
41,472115,232,沖縄県,沖縄市,吉里小児クリニック,ヨシザトショウニクリニック,無床診療所,沖縄県沖縄市美里5ｰ24‐15,,26.35324442,127.8124597,(098)921-0300,,,,,,,,,,,小児科;内科;皮膚科,0.0,,
42,472115,233,沖縄県,沖縄市,ファミリーメンタルクリニック,ファミリーメンタルクリニック,無床診療所,沖縄県沖縄市知花6ｰ40‐3,,26.3664099,127.8165507,(098)939-5561,,,,,,,,,,,診療内科;神経科;精神科;内科;小児科,0.0,,
43,472115,235,沖縄県,沖縄市,沖縄県中部保健所,チュウブホケンショ,無床診療所,沖縄県沖縄市美原1ｰ6‐28,,26.34773673,127.8197204,(098)938-9886,,,,,,,,,,,内科;歯科,0.0,,
44,472115,237,沖縄県,沖縄市,永山脳神経クリニック,ナガヤマノウシンケイクリニック,無床診療所,沖縄県沖縄市美原4ｰ1‐10,,26.35160577,127.818076,(098)929-2200,,,,,,,,,,,脳神経外科;内科;リハビリテーション科;整形外科,0.0,,
45,472115,238,沖縄県,沖縄市,のぼる耳鼻咽喉科医院,ノボルジビインコウカイイン,無床診療所,沖縄県沖縄市東2ｰ26‐5,,26.34511486,127.82587,(098)929-1187,,,,,,,,,,,耳鼻咽喉科;アレルギー科,0.0,,
47,472115,242,沖縄県,沖縄市,中部眼科,チュウブガンカ,有床診療所,沖縄県沖縄市美原3ｰ22‐11,,26.35084751,127.8175677,(098)934-8000,,,,,,,,,,,眼科,0.0,,
48,472115,243,沖縄県,沖縄市,北城整形外科,キタシロセイケイゲカ,無床診療所,沖縄県沖縄市山内2ｰ25‐41,,26.32469378,127.7871177,(098)930-7777,,,,,,,,,,,整形外科;リハビリテーション科;リウマチ科,0.0,,
49,472115,246,沖縄県,沖縄市,社会医療法人敬愛会　ちばなクリニック　,チバナクリニック,無床診療所,沖縄県沖縄市知花6ｰ25‐15,,26.36381848,127.8171396,(098)939-1301,,,,,,,,,,,内科;外科;小児科;整形外科;泌尿器科;眼科;耳鼻いんこう科;小児外科;婦人科;放射線科;リハビリテーション科;神経内科;循環器内科;消化器内科;呼吸器内科;感染症内科;糖尿病内科;腎臓内科（人工透析）;消化器外科;;呼吸器外科;肛門外科;血管外科;皮膚科;脳神経外科,0.0,,
50,472115,249,沖縄県,沖縄市,兼城医院,カネシロイイン,無床診療所,沖縄県沖縄市美原2ｰ26‐13,,26.34671737,127.8190399,(098)929-3000,,,,,,,,,,,心療内科;精神科;神経科;内科,0.0,,
51,472115,250,沖縄県,沖縄市,まつもと胃腸科整形外科医院,マツモトイチョウカセイケイゲカイイン,無床診療所,沖縄県沖縄市松本1ｰ21‐23,,26.35638587,127.8178953,(098)939-2115,,,,,,,,,,,胃腸科;整形外科;外科;内科;肛門科;皮膚科;リハビリテーション科,0.0,,
52,472115,253,沖縄県,沖縄市,嘉数医院,カカズイイン,無床診療所,沖縄県沖縄市諸見里1ｰ26‐2,,26.3290824,127.7936255,(098)930-0090,,,,,,,,,,,内科;呼吸器科;アレルギー科;小児科,0.0,,
53,472115,256,沖縄県,沖縄市,源河医院,ゲンカイイン,無床診療所,沖縄県沖縄市中央1ｰ18‐7,,26.33748177,127.8007942,(098)937-4976,,,,,,,,,,,内科;脳神経外科;リハビリテーション科,0.0,,
54,472115,258,沖縄県,沖縄市,美里女性クリニック,ミサトジョセイクリニック,有床診療所,沖縄県沖縄市美原2ｰ25‐3,,26.34697566,127.8176733,(098)929-3003,,,,,,,,,,,産婦人科;内科,0.0,,
55,472115,260,沖縄県,沖縄市,中部産婦人科医院,チュウブサンフジンカイイン,有床診療所,沖縄県沖縄市安慶田1ｰ3‐20,,26.33794587,127.8121128,(098)937-8878,,,,,,,,,,,産科;婦人科,0.0,,
56,472115,268,沖縄県,沖縄市,安立医院,アダチイイン,無床診療所,沖縄県沖縄市山内1ｰ7‐5,,26.32738518,127.7867621,(098)933-6200,,,,,,,,,,,内科;人工透析内科;消化器内科,0.0,,
57,472115,271,沖縄県,沖縄市,いしはら小児科,イシハラショウニカ,無床診療所,沖縄県沖縄市美原4ｰ27‐15,,26.35108083,127.8185537,(098)934-7666,,,,,,,,,,,小児科;アレルギー科,0.0,,
58,472115,277,沖縄県,沖縄市,なかみねニュークリニック,ナカミネニュークリニック,無床診療所,沖縄県沖縄市古謝2ｰ21‐29,,26.3344022,127.8338277,(098)929-1000,,,,,,,,,,,内科;消化器科,0.0,,
59,472115,280,沖縄県,沖縄市,みはら耳鼻咽喉科,ミハラジビインコウカ,無床診療所,沖縄県沖縄市美原4ｰ10‐2,,26.35049211,127.8248005,(098)929-2088,,,,,,,,,,,耳鼻咽喉科,0.0,,
60,472115,281,沖縄県,沖縄市,桃山クリニック,モモヤマクリニック,無床診療所,沖縄県沖縄市南桃原3ｰ1‐1,,26.32119958,127.7840125,(098)930-2233,,,,,,,,,,,内科;胃腸内科,0.0,,
61,472115,287,沖縄県,沖縄市,ガキヤ眼科医院,ガキヤガンカイイン,無床診療所,沖縄県沖縄市胡屋1ｰ1‐6,,26.33577638,127.8007192,(098)937-9902,,,,,,,,,,,眼科,0.0,,
62,472115,292,沖縄県,沖縄市,山里整形外科,ヤマザトセイケイゲカ,無床診療所,沖縄県沖縄市山里1ｰ4‐15,,26.32304407,127.7920841,(098)933-1331,,,,,,,,,,,整形外科;形成外科,0.0,,
63,472115,295,沖縄県,沖縄市,おくま眼科,オクマガンカ,無床診療所,沖縄県沖縄市高原7ｰ28‐1,,26.31972295,127.8260814,(098)982-2181,,,,,,,,,,,眼科,0.0,,
64,472115,301,沖縄県,沖縄市,なおまさクリニック,ナオマサクリニック,無床診療所,沖縄県沖縄市上地2ｰ12‐18,,26.33195996,127.7955836,(098)989-9229,,,,,,,,,,,心療内科;神経科;精神科,0.0,,
65,472115,303,沖縄県,沖縄市,医療法人白水会　明陽クリニック,イリョウホウジンシラミズカイ　メイヨウクリニック,無床診療所,沖縄県沖縄市園田1ｰ4‐5,,26.33161841,127.7988417,(098)930-7700,,,,,,,,,,,内科;消化器内科;胃腸内科;老年内科;内視鏡内科,0.0,,
66,472115,306,沖縄県,沖縄市,特別養護老人ホーム森城医務室,トクベツヨウゴロウジンホームモリシロイムシツ,無床診療所,沖縄県沖縄市諸見里3ｰ41‐30,,26.32862406,127.7911979,(098)989-3952,,,,,,,,,,,内科,0.0,,
67,472115,307,沖縄県,沖縄市,琉和の森医務室,ルカズノモリイムシツ,無床診療所,沖縄県沖縄市美里6ｰ25‐38,,26.3513584,127.8082517,(098)989-9866,,,,,,,,,,,皮膚科;内科,0.0,,
68,472115,312,沖縄県,沖縄市,医療法人ヒフミ　桑江皮膚科医院,クワエヒフカイイン,無床診療所,沖縄県沖縄市上地1ｰ13‐3,,26.33279604,127.7979306,(098)933-2056,,,,,,,,,,,皮膚科,0.0,,
69,472115,316,沖縄県,沖縄市,医療法人芳醇の会　はた内科クリニック,ハタナイカクリニック,無床診療所,沖縄県沖縄市美原3ｰ22‐8,,26.35124469,127.8174677,(098)987-5201,,,,,,,,,,,内科,0.0,,
70,472115,320,沖縄県,沖縄市,高原こころクリニック,タカハラココロクリニック,無床診療所,沖縄県沖縄市高原6ｰ4‐9,,26.32045902,127.8277034,(098)989-4002,,,,,,,,,,,心療内科;精神科,0.0,,
71,472115,326,沖縄県,沖縄市,ヘシキ形成外科クリニック,ヘシキケイセイゲカクリニック,無床診療所,沖縄県沖縄市泡瀬4ｰ40‐1,,26.31493455,127.8270369,(098)930-5454,,,,,,,,,,,形成外科;美容外科;美容皮フ科,0.0,,
72,472115,329,沖縄県,沖縄市,特別養護老人ホーム知花の里医務室,チバナノサトイムシツ,無床診療所,沖縄県沖縄市知花5ｰ23‐16,,26.36406839,127.81189,(098)923-5020,,,,,,,,,,,内科,0.0,,
73,472115,330,沖縄県,沖縄市,登川クリニック,ノボリカワクリニック,無床診療所,沖縄県沖縄市登川2ｰ24‐2,,26.36637942,127.8237946,(098)937-0123,,,,,,,,,,,内科;糖尿病内科;循環器内科;腎臓内科;人工透析内科,0.0,,
74,472115,336,沖縄県,沖縄市,女性内科　オレンジ,ジョセイナイカオレンジ,無床診療所,沖縄県沖縄市古謝津嘉山町30‐22,武ﾊｳｽ1号室,26.34391225,127.8293281,(098)921-3636,,,,,,,,,,,内科,0.0,,
75,472115,337,沖縄県,沖縄市,あさとこどもクリニック　,アサトコドモクリニック,無床診療所,沖縄県沖縄市古謝2ｰ19‐6,,26.33329402,127.8357609,(098)921-2121,,,,,,,,,,,小児科,0.0,,
76,472115,339,沖縄県,沖縄市,なかむら内科おなかクリニック,ナカムラナイカオナカクリニック,無床診療所,沖縄県沖縄市比屋根6ｰ27‐17,1階,26.31815342,127.8148713,(098)930-3377,,,,,,,,,,,内科;胃腸内科,0.0,,
77,472115,340,沖縄県,沖縄市,いくみ皮ふ科クリニック,イクミヒフカクリニック,無床診療所,沖縄県沖縄市比屋根6ｰ27‐17,2階,26.31815342,127.8148713,(098)930-3322,,,,,,,,,,,皮膚科;美容皮膚科,0.0,,
78,472115,350,沖縄県,沖縄市,ゆいクリニック,ユイクリニック,有床診療所,沖縄県沖縄市字登川2444‐3,,26.3704762,127.8190227,(098)989-3801,,,,,,,,,,,産婦人科;小児科,0.0,,
79,472115,355,沖縄県,沖縄市,医療法人徳洲会　ソフィアクリニック,ソフィアクリニック,無床診療所,沖縄県沖縄市安慶田3ｰ11‐30,1階,26.33024663,127.8126796,(098)923-2110,,,,,,,,,,,小児科;内科;外科,0.0,,
80,472115,360,沖縄県,沖縄市,あきら整形外科クリニック,アキラセイケイゲカクリニック,無床診療所,沖縄県沖縄市古謝2ｰ19‐5,,26.3336412,127.8353998,(098)921-3330,,,,,,,,,,,整形外科;リハビリテーション科,0.0,,
81,472115,364,沖縄県,沖縄市,おおやま泌尿器科クリニック,オオヤマヒニョウキカクリニック,無床診療所,沖縄県沖縄市山里1ｰ1‐2,304号室,26.32383288,127.792359,(098)931-1577,,,,,,,,,,,泌尿器科,0.0,,
82,472115,365,沖縄県,沖縄市,しおひら内科・腎クリニック,シオヒラナイカジンクリニック,無床診療所,沖縄県沖縄市山里1ｰ1‐2,303号室,26.32383288,127.792359,(098)930-2112,,,,,,,,,,,内科;腎臓内科,0.0,,
83,472115,366,沖縄県,沖縄市,三愛眼科,サンアイガンカ,無床診療所,沖縄県沖縄市山内1ｰ3‐28,,26.3264075,127.7870816,(098)933-3322,,,,,,,,,,,眼科,0.0,,
84,472115,369,沖縄県,沖縄市,ゆうクリニック,ユウクリニック,無床診療所,沖縄県沖縄市宮里2ｰ25‐10,ｵｱｼｽﾏﾝｼｮﾝAYA101,26.34239287,127.8234841,(098)989-0748,,,,,,,,,,,精神科;心療内科,0.0,,
86,472115,380,沖縄県,沖縄市,おくま整形外科,オクマセイケイゲカ,無床診療所,沖縄県沖縄市美里1ｰ26‐33,,26.34168172,127.8178373,(098)938-3478,,,,,,,,,,,整形外科;リハビリテーション科,0.0,,
87,472115,388,沖縄県,沖縄市,アワセ皮フ科クリニック,アワセヒフカクリニック,無床診療所,沖縄県沖縄市泡瀬4ｰ1‐2,1階,26.32107293,127.8314975,(098)929-1241,,,,,,,,,,,皮膚科,0.0,,
88,472115,391,沖縄県,沖縄市,じねんこどもクリニック,ジネンコドモクリニック,無床診療所,沖縄県沖縄市山里1ｰ1‐2,ﾊﾟｰﾁｪ山里301,26.32383288,127.792359,(098)989-5601,,,,,,,,,,,小児科;内科,0.0,,
89,472115,396,沖縄県,沖縄市,マリン在宅クリニック,マリンザイタククリニック,無床診療所,沖縄県沖縄市泡瀬2ｰ3‐17,BLUESKYAWASEA-2号,26.31966754,127.8326946,(098)989-9114,,,,,,,,,,,内科;外科;皮膚科,0.0,,
90,472115,397,沖縄県,沖縄市,まちだ泌尿器科クリニック　,マチダヒニョウキカクリニック,無床診療所,沖縄県沖縄市美里仲原町28‐18,,26.34365667,127.8262228,(098)921-4145,,,,,,,,,,,泌尿器科,0.0,,
91,472115,398,沖縄県,沖縄市,中部ゆくいクリニック,チュブユクイクリニック,無床診療所,沖縄県沖縄市胡屋6ｰ8‐6,,26.32648578,127.8078022,(098)989-8873,,,,,,,,,,,内科,0.0,,
92,472115,399,沖縄県,沖縄市,敬和医院　,ケイワイイン,有床診療所,沖縄県沖縄市字登川566　,,26.36769045,127.8263555,(098)923-1260,,,,,,,,,,,内科,0.0,,
93,472115,416,沖縄県,沖縄市,比嘉デンタルクリニック,ヒガデンタルクリニック,無床診療所,沖縄県沖縄市胡屋4ｰ6‐11,,26.3325628,127.800711,(098)933-6800,,,,,,,,,,,歯科,0.0,,
94,472115,417,沖縄県,沖縄市,中の町ホワイト歯科医院,ナカノマチホワイトシカイイン,無床診療所,沖縄県沖縄市上地2ｰ9‐1,2階,26.33176557,127.7972724,(098)933-6874,,,,,,,,,,,歯科,0.0,,
95,472115,421,沖縄県,沖縄市,こうち歯科医院,コウチシカイイン,無床診療所,沖縄県沖縄市住吉1ｰ2‐26,住吉ﾋﾞﾙ2階,26.33828748,127.8110573,(098)939-3454,,,,,,,,,,,歯科;小児歯科;矯正歯科,0.0,,
96,472115,422,沖縄県,沖縄市,おおにし歯科医院,オオニシシカイイン,無床診療所,沖縄県沖縄市山内2ｰ7‐19,,26.32100239,127.7843791,(098)933-6480,,,,,,,,,,,歯科,0.0,,
97,472115,424,沖縄県,沖縄市,みやくに歯科,ミヤクニシカ,無床診療所,沖縄県沖縄市照屋2ｰ22‐27,,26.33385743,127.815271,(098)938-0016,,,,,,,,,,,歯科;小児歯科,0.0,,
98,472115,428,沖縄県,沖縄市,ともよせ歯科,トモヨセシカ,無床診療所,沖縄県沖縄市松本1ｰ4‐9,,26.35679688,127.8132401,(098)939-6480,,,,,,,,,,,歯科,0.0,,
99,472115,430,沖縄県,沖縄市,あさと歯科クリニック,アサトシカクリニック,無床診療所,沖縄県沖縄市高原1ｰ11‐9,名嘉真ﾏﾝｼｮﾝ1階,26.32747749,127.8141573,(098)939-0648,,,,,,,,,,,歯科;小児歯科,0.0,,
100,472115,433,沖縄県,沖縄市,しま歯科クリニック,シマシカクリニック,無床診療所,沖縄県沖縄市山内4ｰ9‐6,,26.32942651,127.7810069,(098)933-7811,,,,,,,,,,,歯科,0.0,,
1,473111,270,沖縄県,恩納村,恩納クリニック,オンナクリニック,無床診療所,沖縄県恩納村字恩納6329　,,26.48833,127.8468635,(098)966-8115,,,,,,,,,,,内科;循環器科;胃腸科;呼吸器科;小児科,0.0,,
2,473111,273,沖縄県,恩納村,特別養護老人ホーム谷茶の丘　雅（みやび）診療所,トクベツヨウゴロウジンホームタンチャノオカ　マサシ（ミヤビ）シンリョウジョ,無床診療所,沖縄県恩納村字谷茶1919‐7,,26.45633213,127.8255272,(098)966-2323,,,,,,,,,,,内科;循環器科;胃腸科;呼吸器科,0.0,,
3,473111,294,沖縄県,恩納村,啓子メンタルクリニック,ケイコメンタルクリニック,無床診療所,沖縄県恩納村字真栄田2219　,,26.43091325,127.7560057,(098)989-4146,,,,,,,,,,,精神科,0.0,,
4,473111,335,沖縄県,恩納村,OISTクリニック,クリニック,無床診療所,沖縄県恩納村字谷茶1919‐1,ｾﾝﾀｰ棟B234,26.46471489,127.8299988,(098)982-3446,,,,,,,,,,,精神科;心療内科,0.0,,
5,473111,375,沖縄県,恩納村,西大條診療所,ニシオオエダシンリョウショ,無床診療所,沖縄県恩納村字谷茶565‐1,,26.46902295,127.8331929,(098)966-1100,,,,,,,,,,,内科;放射線科,0.0,,
6,473111,510,沖縄県,恩納村,大久保歯科,オオクボシカ,無床診療所,沖縄県恩納村字瀬良垣469　,,26.50715117,127.8762131,(098)982-3151,,,,,,,,,,,歯科;小児歯科,0.0,,
7,473111,607,沖縄県,恩納村,海風予防訪問歯科クリニック,ウミカゼヨボウホウモンシカクリニック,無床診療所,沖縄県恩納村冨着576‐1,2階,26.45310408,127.8066455,(098)979-7177,,,,,,,,,,,歯科;小児歯科;矯正歯科;歯科口腔外科,0.0,,
1,473251,120,沖縄県,嘉手納町,医療法人仁誠会　名嘉病院,イリョウホウジンヒトシマコトカイ　ナカビョウイン,病院,沖縄県嘉手納町字嘉手納258　,,26.36733329,127.7550522,(098)956-1161,,,,,,,,,,,内科;外科;胃腸科;整形外科;眼科;耳鼻咽喉科;リハビリテーション科;歯科;脳神経外科;皮膚科,0.0,,
2,473251,175,沖縄県,嘉手納町,特別養護老人ホーム比謝川の里医務室,トクベツヨウゴロウジンホームヒジャガワノサトイムシツ,無床診療所,沖縄県嘉手納町字久得242‐2,,26.37205544,127.7712427,(098)957-3000,,,,,,,,,,,内科,0.0,,
3,473251,239,沖縄県,嘉手納町,医療法人海泉陽の会　中山眼科,ナカヤマガンカ,無床診療所,沖縄県嘉手納町字嘉手納286‐2,,26.36428082,127.7552162,(098)957-2737,,,,,,,,,,,眼科,0.0,,
4,473251,291,沖縄県,嘉手納町,ロクト整形Ｊ２,ロクトセイケイ,無床診療所,沖縄県嘉手納町字屋良1063‐1,,26.36701989,127.7730871,(098)957-6910,,,,,,,,,,,整形外科;リハビリテーション科,0.0,,
5,473251,367,沖縄県,嘉手納町,野村ハートクリニック,ノムラハートクリニック,無床診療所,沖縄県嘉手納町字屋良1063‐1,,26.36701989,127.7730871,(098)982-8810,,,,,,,,,,,内科;循環器内科;呼吸器内科;消化器内科;皮膚科;小児科,0.0,,
6,473251,435,沖縄県,嘉手納町,みずがま歯科,ミズガマシカ,無床診療所,沖縄県嘉手納町字水釜373‐255,,26.35795333,127.742595,(098)957-3190,,,,,,,,,,,歯科;小児歯科,0.0,,
7,473251,493,沖縄県,嘉手納町,なかお歯科クリニック,ナカオシカクリニック,無床診療所,沖縄県嘉手納町字水釜379‐12,,26.35968648,127.74162,(098)957-6480,,,,,,,,,,,歯科;歯科口腔外科,0.0,,
8,473251,527,沖縄県,嘉手納町,上運天歯科矯正歯科,カミウンテンシカキョウセイシカ,無床診療所,沖縄県嘉手納町嘉手納290‐4,2階,26.36311982,127.755269,(098)956-4618,,,,,,,,,,,歯科;小児歯科;矯正歯科,0.0,,
9,473251,599,沖縄県,嘉手納町,知花歯科医院,チバナシカイイン,無床診療所,沖縄県嘉手納町嘉手納281,2階,26.36464746,127.7555745,(098)956-2550,,,,,,,,,,,歯科,0.0,,
10,473251,601,沖縄県,嘉手納町,医療法人山内矯正歯科クリニック,イリョウホウジンヤマウチキョウセイシカクリニック,無床診療所,沖縄県嘉手納町嘉手納281,3階,26.36464746,127.7555745,(098)957-1818,,,,,,,,,,,矯正歯科,0.0,,
1,473138,128,沖縄県,宜野座村,医療法人ユカリア沖縄　かんな病院　,イリョウホウジンユカリアオキナワ　カンナビョウイン　,病院,沖縄県宜野座村字漢那469　,,26.47496991,127.9626514,(098)968-3661,,,,,,,,,,,内科;外科;小児科;整形外科;皮膚科;眼科;泌尿器科;リハビリテーション科;消化器内科;循環器内科,0.0,,
2,473138,325,沖縄県,宜野座村,特別養護老人ホームでいご園医務室,デイゴエンイムシツ,無床診療所,沖縄県宜野座村字惣慶1295　,,26.4752201,127.9709811,(098)968-8363,,,,,,,,,,,内科;外科;精神科,0.0,,
3,473138,383,沖縄県,宜野座村,医療法人ヒフミ　皮膚科往診専門クリニックぎのざ桑の実,ヒフカオウシンセンモンクリニックギノザクワノミ,無床診療所,沖縄県宜野座村字惣慶1894‐4,,26.48131391,127.9688588,(098)983-2515,,,,,,,,,,,皮膚科,0.0,,
4,473138,549,沖縄県,宜野座村,あすなろ歯科医院,アスナロシカイイン,無床診療所,沖縄県宜野座村字惣慶1827‐2,,26.48058354,127.9732862,(098)968-2313,,,,,,,,,,,歯科,0.0,,
5,473138,567,沖縄県,宜野座村,まつだ歯科医院,マツダシカイイン,無床診療所,沖縄県宜野座村字松田636‐1,,26.49099139,127.9898787,(098)968-8881,,,,,,,,,,,歯科;小児歯科;矯正歯科;歯科口腔外科,0.0,,
1,472051,,沖縄県,宜野湾市,順徳医院,ジュントクイイン,有床診療所,沖縄県宜野湾市大謝名１－１９－１,,26.267431,127.737793,(098）8975456,,,,,,月火水木金土,9:30,18:30,土曜午後、日祝日は休診,,内;小;外;産婦;耳い;麻;整外,7.0,,
2,472051,,沖縄県,宜野湾市,宜野湾記念病院,ギノワンキネンビョウイン,病院,沖縄県宜野湾市宜野湾３－３－１３,,26.260059,127.758453,(098）8932101,,,,,,月火水木金土,8:30,18:00,日、祝日、年末年始は休診（但し、急患は24Ｈ対応）,,内科;外科;整形外科;リハビリ科,,https://ginowan-kinen.or.jp/,
3,472051,,沖縄県,宜野湾市,当山産婦人科医院,トウヤマサンフジンカイイン,,沖縄県宜野湾市大謝名５－２０－８,,26.267435,127.730515,(098）8975666,,,,,,月火水木金土,9:00,18:00,木、土曜午後は休診,,産婦人科,,http://touyama.littlestar.jp/,
4,472051,,沖縄県,宜野湾市,伊佐浜診療所,イサハマシンリョウジョ,無床診療所,沖縄県宜野湾市伊佐４ー５ー７,,26.290333,127.753548,(098）8984893,,,,,,月木,9:30,16:00,火水金土日祝日は休診,,内科,,,
5,472051,,沖縄県,宜野湾市,愛知クリニック,アイチクリニック,有床診療所,沖縄県宜野湾市愛知１－２ー１２,,26.270262,127.768929,(098）8923511,,,,,,月火水木金土,9:00,18:00,土曜午後、祝祭日、日曜日休診,,産科;婦人科;小児科;内科,19.0,,
6,472051,,沖縄県,宜野湾市,眼科クリニック幸地,ガンカクリニックコウチ,無床診療所,沖縄県宜野湾市宜野湾２－５－１３,,26.262449,127.756317,(098）8933711,,,,,,火水木金土日,8:00,17:30,月曜日、日曜日の午後、祝祭日、第３日曜日は休診,,眼科,,http://www.eyeclinic-kouchi.jp/,
7,472051,,沖縄県,宜野湾市,こはぐら耳鼻咽喉科,コハグラジビインコウカ,無床診療所,沖縄県宜野湾市普天間２－４９－１４,,26.291248,127.776192,(098）8934070,,,,,,月火木金土,9:30,17:30,土曜日の午後は15：30まで,,耳鼻咽喉科,,,
8,472051,,沖縄県,宜野湾市,宜野湾整形外科医院,ギノワンセイケイゲカイイン,無床診療所,沖縄県宜野湾市真栄原３－７－７,,26.262394,127.742195,(098）8971891,,,,,,月火水木金土,8:30,17:30,日曜、祝日及び木土曜日の午後は休診,,整形外科,,https://ginowanseikei.or.jp/,
9,472051,,沖縄県,宜野湾市,海邦病院,カイホウビョウイン,病院,沖縄県宜野湾市真志喜２－２３－５,,26.276815,127.736862,(098）8982111,,,,,,月火水木金土,9:00,17:30,木土曜日の午後、日曜日、祝祭日は休診,,内;整外;泌尿器;リウマチ;放射線;リハビリ,,https://kaiho.or.jp/,
10,472051,,沖縄県,宜野湾市,山内耳鼻咽喉科医院,ヤマウチジビインコウカイイン,無床診療所,沖縄県宜野湾市真栄原３－２４－１４,,26.263861,127.745682,(098）8901717,,,,,,月火水木金土,9:00,18:30,日曜日、祝祭日は休診,,耳鼻咽喉科;気管食道科,,,
11,472051,,沖縄県,宜野湾市,やましろ皮フ科,ヤマシロヒフカ,無床診療所,沖縄県宜野湾市上原１－２－９,,26.275717,127.77475,(098）8928105,,,,,,月火水金土,9:00,18:00,火曜午前、木曜、日曜、祝祭日は休診、土曜は16：00まで,,皮膚科,,,
12,472051,,沖縄県,宜野湾市,神元内科医院,カミモトナイカイイン,,沖縄県宜野湾市真栄原３－５－３,,26.26149,127.743843,(098）8986631,,,,,,月火水金土,9:00,17:15,日曜・祝祭日、木曜日、土曜午後は休診,,内科;循環器内科;消化器内科;胃腸内科,,,
13,472051,,沖縄県,宜野湾市,宮城医院,ミヤギイイン,,沖縄県宜野湾市野嵩１－１０－１１,,26.280291,127.780807,(098）8937777,,,,,,月火木金,9:00,17:30,水曜・土曜・日曜・祝祭日・慰霊の日は休診,,内科;消化器内科;小児科,,,
14,472051,,沖縄県,宜野湾市,よなみね内科,ヨナミネナイカ,,沖縄県宜野湾市普天間２－４－５,,26.288141,127.77684,(098）8941000,,,,,,月火水木金土,9:00,18:00,日曜・祝祭日、土曜日午後は休診,,内科;小児科;呼吸器内科;循環器内科,,,
15,472051,,沖縄県,宜野湾市,さよウィメンズ・メンタルクリニック,サヨウィメンズ・メンタルクリニック,無床診療所,沖縄県宜野湾市志真志４－２４－７,沖縄ぎのわんセミナーハウス４Ｆ,26.256023,127.759163,(098）8709855,,,,,,月火水金土,9:00,17:00,木曜・日曜・祝祭日・火曜午後（他臨時休診あり）※完全電話予約制,,精神科;心療内科,,,
16,472051,,沖縄県,宜野湾市,まえはら内科,マエハラナイカ,,沖縄県宜野湾市真栄原３－１９－８,,26.263966,127.744087,(098）8702807,,,,,,月火水金土,9:00,18:00,木曜・日曜・祝祭日、土曜日午後は休診,,内科;呼吸器内科,,https://maeharanaika.com/,
17,472051,,沖縄県,宜野湾市,ひかり眼科,ヒカリガンカ,無床診療所,沖縄県宜野湾市愛知１ー２ー１,,26.270262,127.768929,(098）8929888,,,,,,月火木金土,9:30,18:00,水曜日・日曜日・祝日は休診,,眼科,,,
18,472051,,沖縄県,宜野湾市,おやかわクリニック,オヤカワクリニック,,沖縄県宜野湾市長田１ー２９－１,,26.263044,127.762329,(098）8935511,,,,,,月火水木金土,8:30,17:00,木曜日午後、日曜・祝祭日、旧盆（ウークイ）、年末年始は休診,,内;胃腸;呼吸器;循環器,,https://www.oyakawa-clinic.com/,
19,472051,,沖縄県,宜野湾市,うえはらこどもクリニック,ウエハラコドモクリニック,無床診療所,沖縄県宜野湾市長田１－２６－１９,,26.261745,127.76371,(098）8925151,,,,,,月火水木金土,9:00,18:00,日曜･祝祭日、水・土曜日午後は休診,,アレルギー科;小児科,,,
20,472051,,沖縄県,宜野湾市,みやぎ小児科クリニック,ミヤギショウニカクリニック,無床診療所,沖縄県宜野湾市我如古４４７－１,,26.260557,127.746101,(098）8983339,,,,,,月火水木金土,9:00,18:00,日曜・祝祭日、木曜日午後は休診,,小児科;内科;皮膚科,,,
21,472051,,沖縄県,宜野湾市,いとむクリニック,イトムクリニック,,沖縄県宜野湾市伊佐１－１０－９,,26.284876,127.754982,(098）8985856,,,,,,月火水金土,8:30,17:30,木日祝祭日は休診、土曜日は15：30まで,,小児科;アレルギー科;皮膚科;耳鼻咽喉科;眼科,,,
22,472051,,沖縄県,宜野湾市,クリニックぎのわん,クリニックギノワン,,沖縄県宜野湾市大山７－７－２２,,26.287573,127.74559,(098）8901212,,,,,,月火水木金土,9:00,19:30,日祝祭日は休診、木曜土曜は17：30まで,,内科;精神科;心療内科;外科;整形外科;リハビリテーション科,,,
23,472051,,沖縄県,宜野湾市,池原外科胃腸科医院,イケハラゲカイチョウカイイン,有床診療所,沖縄県宜野湾市新城２－４０－２７,,26.287012,127.768578,(098）8931531,,,,,,月火水木金土,9:00,19:00,日祝祭日、木・土曜日午後は休診,,外科;消化器内科;胃腸内科;呼吸器内科;内科;肛門外科;泌尿器科;放射線科,,,
24,472051,,沖縄県,宜野湾市,いなふくクリニック,イナフククリニック,,沖縄県宜野湾市真栄原３－１２－２０,,26.262981,127.74321,(098）8905300,,,,,,火水金土,9:00,16:30,月、木、日、祝祭日は休診,,産婦人科;内科;心療内科,,http://inafuku.sakura.ne.jp/index.html,
25,472051,,沖縄県,宜野湾市,ちゃたに内科・呼吸器科,チャタニナイカ・コキュウキカ,,沖縄県宜野湾市宇地泊７２４－２,,26.272427,127.72966,(098）8987777,,,,,,月火水木金土,9:00,17:00,日曜・祝祭日、水曜日・土曜日午後は休診,,内科;呼吸器内科;成人喘息外来;生活習慣病外来,,https://chatani.atat.jp/i/f.php,
26,472051,,沖縄県,宜野湾市,喜屋武内科クリニック,キャンナイカクリニック,,沖縄県宜野湾市嘉数２－１－１,,26.256216,127.738945,(098）8907715,,,,,,月火水木金土,9:00,18:00,日曜・祝祭日、木曜日・土曜日午後は休診,,内科;小児科;リウマチ科,,,
27,472051,,沖縄県,宜野湾市,みみとはなの和クリニック,ミミトハナノナゴミクリニック,無床診療所,沖縄県宜野湾市宇地泊７０１,,26.272816,127.729362,(098）8900753,,,,,,月火水木金土,9:00,17:30,日曜日・祝祭日は休診、土曜日は17：00まで,,耳鼻咽喉科,,https://nagomiclinic.jp/,
28,472051,,沖縄県,宜野湾市,長濵眼科,ナガハマガンカ,無床診療所,沖縄県宜野湾市宇地泊７０１,,26.272816,127.729362,(098）8702266,,,,,,月火水金土,8:30,18:00,木曜日、日曜祝祭日は休診,,眼科,,http://www.nagahamaganka.com/,
29,472051,,沖縄県,宜野湾市,いきいき耳鼻咽喉科クリニック,イキイキジビインコウカクリニック,無床診療所,沖縄県宜野湾市長田１ー１ー３,,26.26527,127.764961,(098）8931187,,,,,,月火水金土,9:00,18:00,木曜日、日曜、祝祭日は休診、土曜日は17：00まで,,耳鼻咽喉科,,http://www.ikiiki-clinic.com/,
30,472051,,沖縄県,宜野湾市,西平医院,ニシヒライイン,,沖縄県宜野湾市赤道２ー２ー２,,26.272564,127.772896,(098）8961116,,,,,,月火水木金土,9:00,18:00,木曜・土曜午後、日曜、祝日、年末・年始(12/31～1/3) お盆（旧暦7月15日）は休診、火曜日は17：00まで,,内科;呼吸器内科;循環器内科;消化器内科;胃腸内科;糖尿病内科,,,
31,472051,,沖縄県,宜野湾市,サンクリニック,サンクリニック,,沖縄県宜野湾市伊佐２－９ー３５,,26.287331,127.754601,(098）8983370,,,,,,月火水木土日,9:00,18:00,金曜日、月曜・日曜午後休診･祝祭日午後休診,,内科;外科;整形外科;胃腸内科;リハビリ科,,,
32,472051,,沖縄県,宜野湾市,新垣形成外科,アラカキケイセイゲカ,無床診療所,沖縄県宜野湾市宇地泊７２９,,26.272427,127.72966,(098）8702990,,,,,,月火水金土,9:00,17:00,木、日、祝日は休診、土曜日は16：00まで,,形成外科;美容外科,,https://www.arakakikeisei.com/,
33,472051,,沖縄県,宜野湾市,かりゆしクリニック,カリユシクリニック,,沖縄県宜野湾市嘉数４－２５ー１５,,26.2624,127.729118,(098）8980555,,,,,,月火水木金土,9:00,17:30,日祝祭日、木土は午後は休診,,内科;循環器科,,https://kariyushi.cc/,
34,472051,,沖縄県,宜野湾市,岡こどもクリニック,オカコドモクリニック,無床診療所,沖縄県宜野湾市宇地泊７７２－１,,26.273745,127.731804,(098）9429255,,,,,,月火水木金土,9:00,18:00,日、祝日、水曜午後は休診,,小児科,,http://oka-kodomo-clinic.jp/,
35,472051,,沖縄県,宜野湾市,早川眼科医院,ハヤカワガンカイイン,無床診療所,沖縄県宜野湾市野嵩２ー２ー２,,26.282846,127.77916,(098）8938155,,,,,,月水木金土,8:30,17:00,火日木曜午後、土曜午後は休診,,眼科,,,
36,472051,,沖縄県,宜野湾市,光クリニック,ヒカリクリニック,,沖縄県宜野湾市嘉数２ー２ー１　,広栄メディカルビル２Ｆ,26.255253,127.739342,(098）8982233,,,,,,月火水木金土,8:30,16:30,水曜午後、土曜午後、日祝日は休診,,内科;消化器内科,,http://www.hikari-naika.com/,
37,472051,,沖縄県,宜野湾市,古堅ウィメンズクリニック,フルゲンウィメンズクリニック,,沖縄県宜野湾市大謝名１６５,,26.2707,127.735016,(098）8901600,,,,,,月火水金土,9:00,18:00,木日祝日は休診、土曜日は17：00まで,,産婦人科,,https://furugen-womens.com/,
38,472051,,沖縄県,宜野湾市,まえだ眼科,マエダガンカ,無床診療所,沖縄県宜野湾市嘉数２－７ー１５,,26.25556,127.736191,(098）8905331,,,,,,,,,,,眼科,,,
39,472051,,沖縄県,宜野湾市,ひでき皮フ科美容クリニック,ヒデキヒフカビヨウクリニック,無床診療所,沖縄県宜野湾市志真志１ー１５ー２３,,26.257734,127.764053,(098）8961111,,,,,,月火水木金土,9:00,18:30,木曜午後、日祝日は休診,,皮膚科;美容皮膚科,,,
40,472051,,沖縄県,宜野湾市,じのん整形外科クリニック,ジノンセイケイゲカクリニック,無床診療所,沖縄県宜野湾市字宇地泊８２０,,26.27243,127.729889,(098）9431115,,,,,,月火木金土,8:30,17:15,水、日、祝日、旧盆最終日午後は休診,,整形外科;リウマチ科;リハビリ科;股関節膝関節外科;スポーツ整形外科,,https://www.jinon-clinic.jp/,
41,472051,,沖縄県,宜野湾市,しらはまクリニック,シラハマクリニック,無床診療所,沖縄県宜野湾市伊佐３ー９ー１９,,26.290817,127.755501,(098）8981671,,,,,,月火木金,9:30,14:30,水土日は休診,,皮膚科;美容皮膚科,,https://aiseien-okinawa.com/,
42,472051,,沖縄県,宜野湾市,さむら脳神経クリニック,サムラノウシンケイクリニック,無床診療所,沖縄県宜野湾市嘉数２－２ー１　,広栄メディカルビル１Ｆ,26.255253,127.739342,(098）8971177,,,,,,月火木金土,9:00,17:00,水日祝日は休診,,脳神経外科;心療内科;精神神経科,,https://samura-clinic.com/,
43,472051,,沖縄県,宜野湾市,クリニック・シンフォニア,クリニック・シンフォニア,無床診療所,沖縄県宜野湾市上原１－１８－１３,ハーモニーマンション１階,26.277027,127.776283,(080)64933289,,,,,,月火木金,9:00,12:00,水土日祝祭日年末年始は休診　※完全予約制,,精神科,,https://serenadetokyo2.wixsite.com/clinic,
44,472051,,沖縄県,宜野湾市,ふくやま整形外科,フクヤマセイケイゲカ,無床診療所,沖縄県宜野湾市長田１ー２８ー１,,26.262644,127.762123,(098）8941234,,,,,,月火水木金土,9:00,18:00,木曜午後、日祝日は休診,,一般整形外科;スポーツ整形外科;リハビリ科,,http://www.fukuyama-seikeigeka.com/,
45,472051,,沖縄県,宜野湾市,愛誠園クリニック,アイセイエンクリニック,無床診療所,沖縄県宜野湾市伊佐３－２６ー８,,26.293285,127.758095,(098）8984141,,,,,,月火水木金土,9:30,17:00,木曜午後、土曜午後、日曜は休診,,内科,,https://aiseien-okinawa.com/institution/aiseien_clinic,
46,472051,,沖縄県,宜野湾市,ねたて内科クリニック,ネタテナイカクリニック,無床診療所,沖縄県宜野湾市嘉数１ー２２ー５,,26.25909,127.737236,(098）8901500,,,,,,月火水金土,9:00,17:30,木、日、祝祭日、年末年始は休診,,一般内科;脳神経内科;リハビリ科,,https://netate-clinic.com/,
47,472051,,沖縄県,宜野湾市,のだけ整形外科,ノダケセイケイゲカ,無床診療所,沖縄県宜野湾市野嵩２ー１ー６　,２，３階,26.282351,127.77816,(098）9171870,,,,,,月火水木金土,9:00,18:00,水土曜午後、日祝祭日は休診,,整形外科;リハビリ科,,http://www.nodakeseikeigeka.com/,
48,472051,,沖縄県,宜野湾市,ぎのわんメンタルクリニック,ギノワンメンタルクリニック,無床診療所,沖縄県宜野湾市大謝名１－１７ー３１,,26.266979,127.736404,(098）8907733,,,,,,月火水木金土,8:30,18:00,火木土曜午後、日祝日は休診,,診療内科;精神科,,https://ginowan-mental-clinic.com/,
49,472051,,沖縄県,宜野湾市,まみ皮フ科クリニック,マミヒフカクリニック,無床診療所,沖縄県宜野湾市嘉数２－２ー１　,広栄メディカルビル２階,26.255253,127.739342,(098）8984112,,,,,,月火木金土,9:00,17:00,水日祝日は休診　※完全予約制,,皮膚科;美容皮膚科,,http://www.mami-clinic.com/,
50,472051,,沖縄県,宜野湾市,おかえり在宅クリニック,オカエリザイタククリニック,無床診療所,沖縄県宜野湾市真栄原１－１１－１０　,１Ｆ　１０１,26.259203,127.743111,(098）9757850,,,,,,月火水木金,9:00,17:00,土日祝日は休診,,内科;麻酔科;精神科,,https://www.okaeri-cl.com/,
51,472051,,沖縄県,宜野湾市,あらかき歯科クリニック,アラカキシカクリニック,無床診療所,沖縄県宜野湾市野嵩２－３４－９,,26.287071,127.777992,(098）8933883,,,,,,月火水金土,10:00,19:00,木日祝日は休診、土曜日は17：00まで,,小児歯科;歯周病治療;予防歯科;矯正歯科;小児矯正;審美歯科,,,
52,472051,,沖縄県,宜野湾市,仲尾歯科医院,ナカオシカイイン,無床診療所,沖縄県宜野湾市真栄原１－１０－５,,26.259579,127.743713,(098）8986771,,,,,,月火水木金土,9:30,20:00,木曜午後、日曜日は休診,,歯科,,,
53,472051,,沖縄県,宜野湾市,ラッキーデンタ・ランド歯科クリニック,ラッキーデンタ・ランドシカクリニック,無床診療所,沖縄県宜野湾市愛知１－５ー１５,愛知ファッションビル　２Ｆ,26.269718,127.767937,(098）8928148,,,,,,月火水金土,9:00,19:00,木曜午後、日祝日は休診、土曜日は17：00まで,,一般歯科;小児歯科;予防歯科;矯正歯科,,https://www.luckydentaland.com/,
54,472051,,沖縄県,宜野湾市,なかむら歯科医院,ナカムラシカイイン,無床診療所,沖縄県宜野湾市上原１－６－５,,26.277922,127.777802,(098）8920990,,,,,,月火水木金土,9:30,19:00,日祝日は休診、土曜日は18：00まで,,小児歯科;歯周病治療;予防歯科;審美歯科,,,
55,472051,,沖縄県,宜野湾市,もりや歯科医院,モリヤシカイイン,無床診療所,沖縄県宜野湾市志真志１－６－５,朝孝ビル１階,26.258141,127.767342,(098）8932838,,,,,,月火水木金土,9:00,19:00,水曜午後、日祝日は休診　※完全予約制,,歯科,,,
56,472051,,沖縄県,宜野湾市,デイゴ歯科医院,デイゴシカイイン,無床診療所,沖縄県宜野湾市野嵩４－１－１３,,26.289705,127.781265,(098）8938900,,,,,,月火水木金土,9:30,18:30,木曜午後、日祝日は休診、,,歯科,,,
57,472051,,沖縄県,宜野湾市,のだけ歯科クリニック,ノダケシカクリニック,無床診療所,沖縄県宜野湾市野嵩１－９－１５,メゾン松川１０１号,26.280058,127.781319,(098）8941718,,,,,,月火水木金土,9:30,19:00,土曜午後、日祝祭日は休診,,歯科,,,
58,472051,,沖縄県,宜野湾市,ともえ歯科クリニック,トモエシカクリニック,無床診療所,沖縄県宜野湾市大謝名１－１７－３３,ＢＡＲＮビル,26.266979,127.736404,(098）8991191,,,,,,月火水木金土,10:00,19:30,火木は15：00～19：30まで、日祝祭日は休診,,歯科;小児歯科,,,
59,472051,,沖縄県,宜野湾市,ライフデンタルクリニック,ライフデンタルクリニック,無床診療所,沖縄県宜野湾市大山６－２４－９,,26.276863,127.738586,(098）8905322,,,,,,月火水木金日,9:00,18:00,土祝日は休診,,歯科,,,
60,472051,,沖縄県,宜野湾市,あさひ歯科医院,アサヒシカイイン,無床診療所,沖縄県宜野湾市我如古２－３２－１８,,26.254189,127.757515,(098）8976480,,,,,,月火水木金土,10:00,19:30,日は休診、土曜祝祭日は19：00まで,,歯科,,http://www.cosmos.ne.jp/~seiaikai/hospital/asahi.html,
61,472051,,沖縄県,宜野湾市,比嘉歯科医院新城診療所,ヒガシカイインアラグスクシンリョウジョ,無床診療所,沖縄県宜野湾市新城１－３６－１,,26.289406,127.771271,(098）8937043,,,,,,月火水金土,9:30,20:00,木日祝日は休診、水曜は午後19：00まで、土曜午後は16：00まで,,歯科;小児歯科,,,
62,472051,,沖縄県,宜野湾市,佐藤歯科,サトウシカ,無床診療所,沖縄県宜野湾市真志喜２－１６－９,,26.2757,127.736862,(098）8903263,,,,,,月火木金土,8:00,19:00,土曜午後、水日は休診,,歯科;矯正歯科;歯科口腔外科;小児歯科,,,
63,472051,,沖縄県,宜野湾市,山川歯科医院,ヤマカワシカイイン,無床診療所,沖縄県宜野湾市嘉数４－２６－１０,ヤマカワビルアネックス,26.26166,127.728241,(098）8903434,,,,,,月火水木金土日,10:00,21:00,日祝祭日は19：00まで,,一般歯科;矯正歯科;小児歯科;歯科口腔外科;審美歯科,,https://yamakawa-dc.tokuzan.org/,
64,472051,,沖縄県,宜野湾市,長田歯科医院,ナガタシカイイン,無床診療所,沖縄県宜野湾市長田３－３５－９,,26.261045,127.76387,(098）8940648,,,,,,月火水木金土,9:00,18:30,土曜午後、木（不定休）日祝日は休診,,小児歯科;歯周病治療;予防歯科;矯正歯科;小児矯正;審美歯科;口腔外科,,,
65,472051,,沖縄県,宜野湾市,生田歯科医院,イクタシカイイン,無床診療所,沖縄県宜野湾市真栄原３－３５－３,,26.265036,127.745766,(098）8974739,,,,,,月火木金土,9:30,18:00,水日祝日は休診,,一般歯科;小児歯科;予防歯科;矯正歯科;口腔外科;歯周内科,,https://www.ikuta-dental.com/,
66,472051,,沖縄県,宜野湾市,太陽歯科医院,タイヨウシカイイン,無床診療所,沖縄県宜野湾市真志喜２－１１－１,,26.275402,127.738701,(098）8906488,,,,,,月火水木金土,10:00,19:00,木曜午前、日祝日は休診　※完全予約制,,歯科,,,
67,472051,,沖縄県,宜野湾市,オリーブ歯科医院,オリーブシカイイン,無床診療所,沖縄県宜野湾市大謝名１－２－２,,26.268562,127.734383,(098）8988241,,,,,,月火水木金土,9:00,18:00,日祝日は休診,,矯正歯科;歯科;小児歯科;歯科口腔外科;審美歯科,,,
68,472051,,沖縄県,宜野湾市,優和デンタルクリニック,ユウワデンタルクリニック,無床診療所,沖縄県宜野湾市長田１－１９－１０,,26.264114,127.763504,(098）8929809,,,,,,月火水金土,9:30,19:00,木日祝日は休診、土曜日は18：00まで,,歯科;小児歯科;歯科口腔外科,,,
69,472051,,沖縄県,宜野湾市,仲村歯科,ナカムラシカ,無床診療所,沖縄県宜野湾市我如古４－５－６,,26.256651,127.750778,(098）8971182,,,,,,月火水木金土,9:00,18:00,木曜午後、日祝日は休診,,歯科;小児歯科,,,
70,472051,,沖縄県,宜野湾市,おさむファミリー歯科クリニック,オサムファミリーシカクリニック,無床診療所,沖縄県宜野湾市喜友名１ー３１－２,,26.287577,127.76487,(098）8940001,,,,,,月火水木金土,9:00,18:30,日祝日は休診、土曜日は17：00まで　※予約制,,歯科;小児歯科;矯正歯科,,,
71,472051,,沖縄県,宜野湾市,渡瀬歯科,ワタセシカ,無床診療所,沖縄県宜野湾市真志喜２－１－１,,26.273689,127.739601,(098）8979111,,,,,,月火木金土日,10:00,19:00,水、土日曜午後、祝日は休診,,歯科;小児歯科,,,
72,472051,,沖縄県,宜野湾市,わかばの森歯科医院,ワカバノモリシカイイン,無床診療所,沖縄県宜野湾市赤道１－１－１,,26.274178,127.773224,(098）8920788,,,,,,月火水木金土,9:30,19:30,日祝日は休診、土曜日は17：30まで,,小児歯科;予防歯科;矯正歯科;審美歯科;口腔外科,,,
73,472051,,沖縄県,宜野湾市,パワー２″・歯科,パワーズシカ,無床診療所,沖縄県宜野湾市我如古３－１２－１７,シティーライツ我如古１０３号,26.254763,127.752914,(098）8903376,,,,,,月火木金土,9:00,19:00,月火曜日は21：00まで、水日祝日は休診　※臨時休診あり,,歯科;小児歯科,,,
74,472051,,沖縄県,宜野湾市,あいち歯科クリニック,アイチシカクリニック,無床診療所,沖縄県宜野湾市愛知１－２ー１５,登川ビル２Ｆ,26.270262,127.768929,(098）8932300,,,,,,月火水木金土,9:00,18:30,土曜日は18：00まで、日祝日は休診,,歯科;矯正歯科;小児歯科;歯科口腔外科,,,
75,472051,,沖縄県,宜野湾市,なかざと歯科医院,ナカザトシカイイン,無床診療所,沖縄県宜野湾市宇地泊７０１,ＮＤビル２階　,26.272816,127.729362,(098）8983118,,,,,,月火水木金土,9:30,19:00,木曜午後、日祝日は休診、土曜日は18：00まで,,予防歯科;審美歯科;歯周病治療,,,
76,472051,,沖縄県,宜野湾市,ホワイト歯科,ホワイトシカ,無床診療所,沖縄県宜野湾市宜野湾３ー２ー２６,,26.261124,127.759735,(098）8924876,,,,,,月火水木金土日,9:30,20:00,日曜日は13：00まで、祝日は休診,,一般歯科;矯正歯科;小児歯科;歯科口腔外科,,https://www.whiteshika.info/,
77,472051,,沖縄県,宜野湾市,あら歯科医院,アラシカイイン,無床診療所,沖縄県宜野湾市野嵩２ー２ー３,,26.282846,127.77916,(098）8933000,,,,,,月火水木金,10:00,19:00,水曜日は20：00まで、土日祝日は休診,,歯科,,,
78,472051,,沖縄県,宜野湾市,しらゆり歯科,シラユリシカ,無床診療所,沖縄県宜野湾市志真志１－１－２,,26.259592,127.763931,(098）8935583,,,,,,月火水金土,9:00,19:00,土曜日は17：00まで、木日祝日は休診,,歯科;矯正歯科;小児歯科,,https://www.kenyukai-dental.com/,
79,472051,,沖縄県,宜野湾市,てぃーだ歯科,ティーダシカ,無床診療所,沖縄県宜野湾市普天間２ー１４－１　,サンフティーマ,26.289469,127.776596,(098）9431857,,,,,,月火水木金土,9:30,18:30,水曜午後、日は休診、土曜日は16：30まで,,歯科;小児歯科;歯科口腔外科,,,
80,472051,,沖縄県,宜野湾市,マリーナ歯科クリニック,マリーナシカクリニック,無床診療所,沖縄県宜野湾市大謝名２２２　,ルビア１Ｆ,26.2707,127.735016,(098）9436533,,,,,,月火木金土,9:00,18:00,水日祝日は休診,,小児歯科;予防歯科;審美歯科;口腔内科;口腔外科;矯正歯科,,https://www.marina-dc.net/,
81,472051,,沖縄県,宜野湾市,エンゼル歯科,エンゼルシカ,無床診療所,沖縄県宜野湾市字宇地泊２６５－１,,26.271786,127.731094,(098）8978839,,,,,,月火水金土,9:00,17:30,火曜日は18：00、土曜日は17：00まで、木日は休診,,歯科;矯正歯科;小児歯科;訪問歯科,,https://www.angel-sika.com/,
82,472051,,沖縄県,宜野湾市,いすの木デンタルクリニック,イスノキデンタルクリニック,無床診療所,沖縄県宜野湾市新城１－５－１２,,26.287073,127.774361,(098）8920027,,,,,,月火木金土,9:00,17:30,水日祝祭日は休診、土曜日は17：00まで,,一般歯科;小児歯科;審美歯科;口腔外科;矯正歯科,,https://www.isunoki.com/,
83,472051,,沖縄県,宜野湾市,パール歯科,パールシカ,無床診療所,沖縄県宜野湾市赤道１－３－１,,26.273392,127.772438,(098）8920147,,,,,,月火水木金土,9:00,20:00,日祝日は休診,,矯正歯科,,https://pearl-dental.okinawa/clinic/,
84,472051,,沖縄県,宜野湾市,セルージュデンタルクリニック,セルージュデンタルクリニック,無床診療所,沖縄県宜野湾市我如古１ー３４－５,,26.257486,127.754974,(098）9435430,,,,,,月火水木金土,9:00,19:00,木曜午後、日祝日は休診。土曜日は15：00まで,,一般歯科;小児歯科;予防歯科,,https://www.cellju-dentalclinic.com/,
85,472051,,沖縄県,宜野湾市,あつみ歯科医院,アツミシカイイン,無床診療所,沖縄県宜野湾市大謝名１ー１５ー１４,,26.268785,127.738037,(098）9876288,,,,,,月火水木金土,9:00,19:00,日祝日は休診、土曜日は16：00まで,,一般歯科;小児歯科;予防歯科,,https://atsumisika.com/,
86,472051,,沖縄県,宜野湾市,Ｄｅｎｔａｌ　Ｃｌｉｎｉｃ　８８(ハーヤー）,デンタルクリニック８８（ハーヤー）,無床診療所,沖縄県宜野湾市伊佐２ー２１ー１３　,大栄マンションⅡ　１０１,26.287443,127.753143,(098）8901188,,,,,,月火木金土日,10:00,20:00,水祝日は休診　※完全予約制,,予防歯科,,https://dentalclinic88.com/,
87,472051,,沖縄県,宜野湾市,はごろもファミリー歯科,ハゴロモファミリーシカ,無床診療所,沖縄県宜野湾市真志喜２－１３ー１３　,コーポ徳本１階,26.274921,127.736763,(098）8982804,,,,,,月火水木金土,9:30,19:00,日祝日は休診,,一般歯科;小児歯科;予防歯科,,https://www.hagoromo-family.com/,
88,472051,,沖縄県,宜野湾市,中澤歯科医院,ナカザワシカイイン,無床診療所,沖縄県宜野湾市志真志４－３６－５　,２Ｆ,26.257536,127.756065,(098）8977389,,,,,,月火水金土,9:00,18:30,木日祝日は休診、土曜日は17：00まで,,一般歯科;小児歯科;矯正歯科;口腔外科,,,
89,472051,,沖縄県,宜野湾市,うえむら歯科医院,ウエムラシカイイン,無床診療所,沖縄県宜野湾市我如古３８０－１,,26.259214,127.747932,(098）8986480,,,,,,月火水金土,9:30,19:00,木日祝日は休診,,一般歯科;小児歯科;予防歯科,,http://www.uemura-shika.jp/33350591,
90,472051,,沖縄県,宜野湾市,大山歯科クリニック,オオヤマシカクリニック,無床診療所,沖縄県宜野湾市大山４ー２－５　,大通ビル３階,26.281525,127.750183,(098）8979182,,,,,,月火水金土,9:30,19:30,木日祝祭日は休診、土曜日は17：30まで,,歯科一般;小児歯科;歯科口腔外科,,http://ooyama-shika.com/,
91,472051,,沖縄県,宜野湾市,じのん矯正歯科クリニック,ジノンキョウセイシカクリニック,無床診療所,沖縄県宜野湾市字大謝名１７２,,26.2707,127.735016,(098）9172304,,,,,,月火水木金土,10:00,19:00,水または木日祝祭日は休診、土曜日は18：00まで,,矯正歯科,,https://jinon.jp/,
92,472051,,沖縄県,宜野湾市,Ｍ’ｓデンタルクリニック,エムズデンタルクリニック,無床診療所,沖縄県宜野湾市神山１－５－６５,１Ｆ,26.266605,127.76461,(098）8938049,,,,,,月水木金土日祝,10:00,19:00,火曜日は休診　※完全予約制,,歯科;小児歯科;障がい歯科,,https://peraichi.com/landing_pages/view/msdentalclinic/,
93,472051,,沖縄県,宜野湾市,サン歯科こども歯科クリニック,サンシカコドモシカクリニック,無床診療所,沖縄県宜野湾市伊佐３ー８ー１４,グランメール１０１号室,26.291178,127.757507,(098）9428131,,,,,,月火木金土,9:30,19:00,水日祝日は休診、土曜日には17：00まで,,一般歯科;小児歯科;口腔外科;予防歯科;審美歯科,,https://sun-dental-okinawa.com/,
94,472051,,沖縄県,宜野湾市,サンエー宜野湾コンベンションシティオレンジ歯科,サンエーギノワンコンベンションシティオレンジシカ,無床診療所,沖縄県宜野湾市字宇地泊５５８ｰ１０,,26.273804,127.727959,(098）9636873,,,,,,月火水木金土日祝,10:00,20:00,日祝日は10：30～16：00まで,,一般歯科;小児歯科;審美歯科;予防歯科,,https://www.ginowan-orange.com/,
1,473618,636,沖縄県,久米島町,公立久米島病院,コウリツクメジマビョウイン,病院,沖縄県久米島町字嘉手苅572-3,,26.34207828,126.7650243,(098)985-5555,,,,,,,,,,,内科;小児科;外科;産婦人科;整形外科;耳鼻咽喉科;皮膚科;眼科;精神科;泌尿器科;循環器内科;神経内科;糖尿病内科;リハビリテーション科,0.0,,
2,473618,771,沖縄県,久米島町,特別養護老人ホーム　くめしま,トクベツヨウゴロウジンホーム　クメシマ,無床診療所,沖縄県久米島町字兼城1464‐5,,26.35457944,126.7641708,(098)985-4569,,,,,,,,,,,,0.0,,
3,473618,790,沖縄県,久米島町,球美の島診療所,タマビノシマシンリョウジョ,無床診療所,沖縄県久米島町字真我里78,,26.33346877,126.7946863,(098)896-8036,,,,,,,,,,,内科;外科,0.0,,
4,473618,798,沖縄県,久米島町,特別養護老人ホーム　球美の杜　医務室,トクベツヨウゴロウジンホーム　タマビノモリ　イムシツ,無床診療所,沖縄県久米島町字嘉手苅533‐1,,26.34135612,126.7634883,(098)985-3900,,,,,,,,,,,内科;外科,0.0,,
5,473618,1024,沖縄県,久米島町,医療法人恵歯会　具志川歯科医院,イリョウホウジンメグミハカイ　グシカワシカイイン,無床診療所,沖縄県久米島町大田564,1F,26.34527489,126.7515363,(098)985-2321,,,,,,,,,,,歯科,0.0,,
6,473618,1055,沖縄県,久米島町,球美の歯科,タマビノシカ,無床診療所,沖縄県久米島町真我里78　,ｺｰﾎﾟ球美105号,26.33346877,126.7946863,,,,,,,,,,,,歯科,0.0,,
1,472140,1056,沖縄県,宮古島市,国立療養所　宮古南静園,コクリツリョウヨウジョ　ミヤコミナミシズカエン,病院,沖縄県宮古島市平良字島尻888,,24.85707273,125.3025892,(0980)72-5321,,,,,,,,,,,内科;外科;皮膚科;眼科;耳鼻咽喉科;歯科,0.0,,
2,472140,1057,沖縄県,宮古島市,医療法人徳洲会　宮古島徳洲会病院,イリョウホウジントクシュウカイ　ミヤコジマトクシュウカイビョウイン,病院,沖縄県宮古島市平良字松原552‐1,,24.78883514,125.2793484,(0980)73-1100,,,,,,,,,,,内科;外科;心臓血管外科;整形外科;脳神経外科;泌尿器科;皮膚科;放射線科;リハビリテーション科;形成外科,0.0,,
3,472140,1058,沖縄県,宮古島市,沖縄県立宮古病院,オキナワケンリツミヤコビョウイン,病院,沖縄県宮古島市平良字下里427-1,,24.79934244,125.2763431,(0980)72-3151,,,,,,,,,,,"内科;呼吸器内科;消化器内科;循環器内科;神経内科;外科;消化器外科;心臓血管外科;脳神経外科;整形外科;精神科;小児科;皮膚科
泌尿器科;産科;婦人科;眼科;耳鼻咽喉科;リハビリテーション科;放射線科;歯科口腔外科;救急科;麻酔科;腎臓内科;病理診断科",0.0,,
4,472140,1059,沖縄県,宮古島市,宮古島リハビリ温泉病院,ミヤコジマリハビリオンセンビョウイン,病院,沖縄県宮古島市平良字東仲宗根添1898‐7,,24.76974447,125.3425599,,,,,,,,,,,,内科;人工透析内科;消化器内科;リハビリテーション科;脳神経内科,0.0,,
5,472140,1060,沖縄県,宮古島市,医療法人　一二三会　こうむら眼科,イリョウホウジン　ヒフミカイ　コウムラガンカ,無床診療所,沖縄県宮古島市平良字久貝1064-10-1,,24.78929623,125.2807427,(0980)73-4123,,,,,,,,,,,眼科,0.0,,
6,472140,1061,沖縄県,宮古島市,沖縄県宮古保健所,オキナワケンミヤコホケンジョ,無床診療所,沖縄県宮古島市平良字東仲宗根476,,24.8035311,125.2880113,(0980)72-2420,,,,,,,,,,,内科;小児科;歯科,0.0,,
7,472140,1062,沖縄県,宮古島市,第二共済組合国立療養所宮古南静園所属診療所,ダイニキョウサイクミアイコクリツリョウヨウジョミヤコミナミシズカエンショゾクシンリョウジョ,無床診療所,沖縄県宮古島市平良字島尻888,,24.85707273,125.3025892,(0980)72-5321,,,,,,,,,,,内科;外科;皮膚科;眼科;耳鼻咽喉科;歯科,0.0,,
8,472140,1063,沖縄県,宮古島市,沖縄県社会福祉事業団　宮古厚生園　医務室,オキナワケンシャカイフクシジギョウダン　ミヤココウセイエン　イムシツ,無床診療所,沖縄県宮古島市平良西仲宗根745-7,,24.81565491,125.2938577,(0980)72-2422,,,,,,,,,,,内科;精神科,0.0,,
9,472140,1064,沖縄県,宮古島市,特別養護老人ホーム　宮古の里,トクベツヨウゴロウジンホーム　ミヤコノサト,無床診療所,沖縄県宮古島市平良字東仲宗根添1800,,24.77232188,125.3396962,(0980)77-2595,,,,,,,,,,,内科,0.0,,
10,472140,1065,沖縄県,宮古島市,池村内科医院,イケムラナイカイイン,有床診療所,沖縄県宮古島市平良東仲宗根194,,24.80488092,125.2859615,(0980)72-3500,,,,,,,,,,,内科;循環器科;呼吸器科;消化器科;皮膚科,0.0,,
11,472140,1066,沖縄県,宮古島市,医療法人　たぶの木　うむやすみゃあす・ん診療所,イリョウホウジン　タブノキ　ウムヤスミャアス・ンシンリョウジョ,無床診療所,沖縄県宮古島市平良字下里1477-4,,24.78713824,125.2874227,(0980)73-3854,,,,,,,,,,,"脳神経外科;神経内科;内科;リハビリテーション科;精神科,
呼吸器外科",0.0,,
12,472140,1067,沖縄県,宮古島市,いけむら小児科,イケムラショウニカ,無床診療所,沖縄県宮古島市平良字西里978‐2,,24.7983428,125.2917388,(0980)73-4970,,,,,,,,,,,小児科;内科;精神科,0.0,,
13,472140,1068,沖縄県,宮古島市,きしもと内科医院,キシモトナイカイイン,無床診療所,沖縄県宮古島市平良字下里1555‐1,,24.78969899,125.281401,(0980)79-0501,,,,,,,,,,,内科;消化器内科,0.0,,
14,472140,1069,沖縄県,宮古島市,いけむら外科・胃腸科・肛門科,イケムラゲカ・イチョウカ・コウモンカ,有床診療所,沖縄県宮古島市平良字西里978-2,,24.7983428,125.2917388,(0980)73-6300,,,,,,,,,,,外科;胃腸科;肛門科,0.0,,
15,472140,1070,沖縄県,宮古島市,ドクターゴン診療所,ドクターゴンシンリョウジョ,無床診療所,沖縄県宮古島市上野字宮国746-17,,24.71813194,125.3202317,(0980)76-2788,,,,,,,,,,,内科,0.0,,
16,472140,1071,沖縄県,宮古島市,砂川内科医院,スナカワナイカイイン,無床診療所,沖縄県宮古島市平良字西里796-3,,24.80015094,125.2904445,(0980)73-0037,,,,,,,,,,,内科,0.0,,
17,472140,1072,沖縄県,宮古島市,特別養護老人ホーム松風園（医務室）,トクベツヨウゴロウジンホームショウフウエン（イムシツ）,無床診療所,沖縄県宮古島市伊良部字長浜1025-3,,24.83160055,125.1832342,(0980)78-5111,,,,,,,,,,,内科,0.0,,
18,472140,1073,沖縄県,宮古島市,特別養護老人ホーム　しもじ長生園（医務室）,トクベツヨウゴロウジンホーム　シモジナガオエン（イムシツ）,無床診療所,沖縄県宮古島市下地字嘉手苅660-2,,24.73794909,125.3109934,(0980)76-3330,,,,,,,,,,,内科,0.0,,
19,472140,1074,沖縄県,宮古島市,医療法人　おおはらクリニック,イリョウホウジン　オオハラクリニック,無床診療所,沖縄県宮古島市平良字下里1099-3,,24.79366532,125.2832453,(0980)72-80)6,,,,,,,,,,,外科;内科;胃腸科;肛門科;泌尿器科,0.0,,
20,472140,1075,沖縄県,宮古島市,下地眼科医院,シモジガンカイイン,無床診療所,沖縄県宮古島市平良字下里577-1,,24.80425589,125.2794371,(0980)73-2228,,,,,,,,,,,眼科,0.0,,
21,472140,1076,沖縄県,宮古島市,医療法人みやこクリニック,イリョウホウジンミヤコクリニック,有床診療所,沖縄県宮古島市平良字東仲宗根596,,24.80689193,125.2923553,(0980)73-4103,,,,,,,,,,,産科;婦人科;小児科;内科,0.0,,
22,472140,1077,沖縄県,宮古島市,ひが小児科医院,ヒガショウニカイイン,無床診療所,沖縄県宮古島市平良字西里781-5,,24.79905105,125.2904251,(0980)73-1477,,,,,,,,,,,小児科;内科,0.0,,
23,472140,1078,沖縄県,宮古島市,真壁眼科,マカベガンカ,有床診療所,沖縄県宮古島市平良字西里787-1,,24.79979262,125.2895918,(0980)73-2200,,,,,,,,,,,眼科,0.0,,
24,472140,1079,沖縄県,宮古島市,医療法人徳洲会 伊良部島診療所,イリョウホウジントクシュウカイ イラブジマシンリョウジョ,無床診療所,沖縄県宮古島市伊良部字前里添639-2,,24.84047236,125.2040407,(0980)78-6661,,,,,,,,,,,内科;外科;小児科;皮膚科;リハビリテーション科,0.0,,
25,472140,1080,沖縄県,宮古島市,くらはし整形外科クリニック,クラハシセイケイゲカクリニック,無床診療所,沖縄県宮古島市平良字西里782-1,,24.79833443,125.289414,(0980)75-5550,,,,,,,,,,,内科;外科;小児科;リハビリテーション科;リウマチ科;整形外科,0.0,,
26,472140,1081,沖縄県,宮古島市,原皮フ科,ゲンピフカ,無床診療所,沖縄県宮古島市下地字上地430-4,,24.74785216,125.2762097,(0980)76-3838,,,,,,,,,,,皮膚科,0.0,,
27,472140,1082,沖縄県,宮古島市,みやぎMS.クリニック,ミヤギMS.クリニック,無床診療所,沖縄県宮古島市平良字久貝1068-15,,24.7875242,125.2816954,(0980)75-0722,,,,,,,,,,,婦人科,0.0,,
28,472140,1083,沖縄県,宮古島市,いしみねクリニック,イシミネクリニック,無床診療所,沖縄県宮古島市平良字西里269-5,,24.80308937,125.281337,(0980)75-5878,,,,,,,,,,,内科;小児科;循環器科,0.0,,
29,472140,1084,沖縄県,宮古島市,稲村耳鼻咽喉科,イナムラジビインコウカ,無床診療所,沖縄県宮古島市平良字久貝669-1,,24.79803693,125.2704659,(0980)74-1187,,,,,,,,,,,耳鼻咽喉科,0.0,,
30,472140,1085,沖縄県,宮古島市,たいら内科,タイラナイカ,無床診療所,沖縄県宮古島市平良字東仲宗根572-6,,24.80711411,125.2911665,(0980)73-8115,,,,,,,,,,,内科,0.0,,
31,472140,1086,沖縄県,宮古島市,城辺中央クリニック,グスクベチュウオウクリニック,有床診療所,沖縄県宮古島市城辺字比嘉628-5,,24.76222701,125.3795206,(0980)77-4693,,,,,,,,,,,内科;外科;整形外科;小児科;皮膚科;婦人科;眼科,0.0,,
32,472140,1087,沖縄県,宮古島市,レオクリニック,レオクリニック,無床診療所,沖縄県宮古島市平良字下里1578-8,,24.7874881,125.282001,(0980)79-0923,,,,,,,,,,,耳鼻咽喉科,0.0,,
33,472140,1088,沖縄県,宮古島市,ドクターゴン四島診療所,ドクターゴンヨントウシンリョウジョ,無床診療所,沖縄県宮古島市平良字西里267　,,24.80338933,125.2809703,(0980)79-5164,,,,,,,,,,,内科,0.0,,
34,472140,1089,沖縄県,宮古島市,社会福祉法人ユームツ会　青潮園　診療所,シャカイフクシホウジンユームツカイ　アオシオエン　シンリョウジョ,無床診療所,沖縄県宮古島市平良字下里2632‐1,,24.77194035,125.3104126,(0980)72-7795,,,,,,,,,,,内科,0.0,,
35,472140,1090,沖縄県,宮古島市,下地診療所,シモジシンリョウジョ,無床診療所,沖縄県宮古島市下地字上地634-1,,24.74923016,125.283237,,,,,,,,,,,,内科;外科;胃腸内科;肛門外科;リハビリテーション科;整形外科;ペインクリニック内科,0.0,,
36,472140,1091,沖縄県,宮古島市,奥平産婦人科医院,オクヒラサンフジンカイイン,有床診療所,"沖縄県宮古島市平良字下里1259-1
",,24.79535965,125.2855311,,,,,,,,,,,,産科;婦人科,0.0,,
37,472140,1092,沖縄県,宮古島市,こころのクリニックてぃんぬぱう,ココロノクリニックティンヌパウ,無床診療所,沖縄県宮古島市平良下里1245-9,正ﾋﾞﾙ1F,24.79315715,125.2891614,,,,,,,,,,,,心療内科;精神科,0.0,,
38,472140,1094,沖縄県,宮古島市,中村胃腸科内科,ナカムライチョウカナイカ,無床診療所,沖縄県宮古島市平良字下里1259-1,,24.79535965,125.2855311,,,,,,,,,,,,内科;胃腸内科,0.0,,
39,472140,1095,沖縄県,宮古島市,シンワメディカルリゾート宮古島,シンワメディカルリゾートミヤコジマ,無床診療所,沖縄県宮古島市上野新里1405-201,ﾎﾃﾙｼｷﾞﾗﾐﾗｰｼﾞｭ2階,24.72100476,125.3394386,(0980)79-9740,,,,,,,,,,,内科;婦人科;乳腺外科;消化器内科;皮膚科,0.0,,
40,472140,1096,沖縄県,宮古島市,陸上自衛隊宮古島駐屯地医務室,リクジョウジエイタイミヤコジマチュウトンチイムシツ,有床診療所,沖縄県宮古島市上野字ｶｷﾞﾓﾘ原83-5,,24.72993456,125.3418911,(0980)76-6661,,,,,,,,,,,内科;外科;歯科,0.0,,
41,472140,1098,沖縄県,宮古島市,宮古島市コロナワクチン接種診療所,ミヤコジマシコロナワクチンセッシュシンリョウジョ,無床診療所,沖縄県宮古島市平良字西里1140　,,24.79009924,125.294847,,,,,,,,,,,,内科,0.0,,
42,472140,1099,沖縄県,宮古島市,高峰整形外科クリニック,タカミネセイケイゲカクリニック,無床診療所,沖縄県宮古島市平良字久貝787-1,,24.79122638,125.2673607,,,,,,,,,,,,整形外科,0.0,,
43,472140,1100,沖縄県,宮古島市,クロトンルームぼぼちち,クロトンルームボボチチ,無床診療所,沖縄県宮古島市下地字川満43,,24.763018,125.2849035,,,,,,,,,,,,婦人科,0.0,,
44,472140,1101,沖縄県,宮古島市,医療法人社団純英会　Hirara生活習慣病クリニック,イリョウホウジンシャダンジュンヒデカイ　Hiraraセイカツシュウカンビョウクリニック,無床診療所,沖縄県宮古島市平良字東仲宗根869‐4,Liveﾒﾃﾞｨｶﾙｶﾞｰﾃﾞﾝ宮古島A室,24.79990934,125.2929748,,,,,,,,,,,,糖尿病内科;内科,0.0,,
45,472140,1102,沖縄県,宮古島市,高輪アイランドクリニック,タカナワアイランドクリニック,無床診療所,沖縄県宮古島市平良下里535-5,ｾﾚﾌﾞﾗﾑﾋﾞﾙ3階,24.80298933,125.2784262,,,,,,,,,,,,内科;婦人科;歯科,0.0,,
46,472140,1103,沖縄県,宮古島市,みずの皮フ科平良院,ミズノカワフカタイライン,無床診療所,沖縄県宮古島市平良字東仲宗根869‐4,Liveﾒﾃﾞｨｶﾙｶﾞｰﾃﾞﾝ宮古島C室,24.79990934,125.2929748,,,,,,,,,,,,皮膚科;アレルギー科,0.0,,
47,472140,1104,沖縄県,宮古島市,ひだまり診療所,ヒダマリシンリョウジョ,無床診療所,沖縄県宮古島市平良字東仲宗根757‐28,,24.80159251,125.2937775,,,,,,,,,,,,小児科;内科;精神科,0.0,,
48,472140,1105,沖縄県,宮古島市,ひさまつクリニック,ヒサマツクリニック,無床診療所,沖縄県宮古島市平良久貝980-7,,24.79144308,125.2709242,,,,,,,,,,,,内科;外科;皮膚科,0.0,,
49,472140,1106,沖縄県,宮古島市,宮古島栄養クリニック,ミヤコジマエイヨウクリニック,無床診療所,沖縄県宮古島市平良字西里294-1,,24.80336157,125.2815675,,,,,,,,,,,,内科;皮膚科;泌尿器科;婦人科,0.0,,
50,472140,1107,沖縄県,宮古島市,医療法人　がねこ歯科クリニック,イリョウホウジン　ガネコシカクリニック,無床診療所,沖縄県宮古島市平良字西里382,,24.80314498,125.2848894,(0980)73-1183,,,,,,,,,,,歯科;小児歯科,0.0,,
51,472140,1108,沖縄県,宮古島市,医療法人　英秀会　岡村歯科医院,イリョウホウジン　エイヒデカイ　オカムラシカイイン,無床診療所,沖縄県宮古島市平良字下里921,,24.79889534,125.2809732,(0980)74-3204,,,,,,,,,,,歯科;小児歯科,0.0,,
52,472140,1109,沖縄県,宮古島市,城辺歯科クリニック,グスクベシカクリニック,無床診療所,沖縄県宮古島市城辺字比嘉627-1,,24.76227977,125.3792151,(0980)77-8481,,,,,,,,,,,歯科;小児歯科;歯科口腔外科;矯正歯科,0.0,,
53,472140,1110,沖縄県,宮古島市,もりお歯科,モリオシカ,無床診療所,沖縄県宮古島市平良字下里1554-1,,24.78948512,125.2811927,(0980)79-8778,,,,,,,,,,,歯科;小児歯科,0.0,,
54,472140,1111,沖縄県,宮古島市,もりた歯科医院,モリタシカイイン,無床診療所,沖縄県宮古島市平良字西里993-26,,24.79677074,125.2916611,(0980)73-1184,,,,,,,,,,,歯科;小児歯科;矯正歯科;歯科口腔外科,0.0,,
55,472140,1112,沖縄県,宮古島市,下地中央歯科医院,シモジチュウオウシカイイン,無床診療所,沖縄県宮古島市下地字洲鎌494-1,,24.74734393,125.2776262,(0980)76-3888,,,,,,,,,,,歯科;小児歯科;矯正歯科,0.0,,
56,472140,1113,沖縄県,宮古島市,永和歯科医院,エイワシカイイン,無床診療所,沖縄県宮古島市平良字下里595-1,,24.8025283,125.280837,(0980)73-7155,,,,,,,,,,,歯科,0.0,,
57,472140,1114,沖縄県,宮古島市,ＫＡＺＵデンタルクリニック,カズデンタルクリニック,無床診療所,沖縄県宮古島市平良字西里159,,24.80538355,125.2796649,(0980)73-4184,,,,,,,,,,,歯科,0.0,,
58,472140,1115,沖縄県,宮古島市,たいら歯科クリニック,タイラシカクリニック,無床診療所,沖縄県宮古島市平良西里472-2,1F,24.80154794,125.2864448,(0980)74-2711,,,,,,,,,,,歯科;小児歯科;矯正歯科,0.0,,
59,472140,1116,沖縄県,宮古島市,伊良部中央歯科医院,イラブチュウオウシカイイン,無床診療所,沖縄県宮古島市伊良部字長浜1377-9,,24.83216686,125.167066,(0980)78-5888,,,,,,,,,,,歯科;小児歯科;矯正歯科,0.0,,
60,472140,1117,沖縄県,宮古島市,池村歯科クリニック,イケムラシカクリニック,無床診療所,沖縄県宮古島市平良字西里1018-2,,24.79330169,125.2938831,(0980)73-0252,,,,,,,,,,,歯科,0.0,,
61,472140,1118,沖縄県,宮古島市,さいわい歯科医院,サイワイシカイイン,無床診療所,沖縄県宮古島市平良下里851-8,1F,24.79856763,125.2833257,(0980)73-0789,,,,,,,,,,,歯科;小児歯科,0.0,,
62,472140,1119,沖縄県,宮古島市,すながわ歯科クリニック,スナガワシカクリニック,無床診療所,沖縄県宮古島市平良字西里792-6,,24.80109805,125.2898528,(0980)73-4183,,,,,,,,,,,歯科,0.0,,
63,472140,1120,沖縄県,宮古島市,松原歯科医院,マツバラシカイイン,無床診療所,沖縄県宮古島市平良字下里944-2,,24.79984244,125.2799233,(0980)73-1788,,,,,,,,,,,歯科,0.0,,
64,472140,1121,沖縄県,宮古島市,方歯科医院,カタシカイイン,無床診療所,沖縄県宮古島市平良字西仲宗根237-3,,24.80993591,125.2833228,(0980)73-1010,,,,,,,,,,,歯科;小児歯科;矯正歯科,0.0,,
65,472140,1122,沖縄県,宮古島市,上野歯科診療所,ウエノシカシンリョウジョ,無床診療所,沖縄県宮古島市上野字新里514-2,,24.74005262,125.3321334,(0980)76-6762,,,,,,,,,,,歯科,0.0,,
66,472140,1123,沖縄県,宮古島市,佐良浜歯科医院,サラウヒンシカイイン,無床診療所,沖縄県宮古島市伊良部字前里添593-42,,24.84368322,125.2072042,(0980)78-4633,,,,,,,,,,,歯科,0.0,,
67,472140,1124,沖縄県,宮古島市,羽地歯科口腔外科医院,ハネジシカコウクウゲカイイン,無床診療所,沖縄県宮古島市平良字久貝1062‐2,,24.78991006,125.2803678,(0980)73-4618,,,,,,,,,,,歯科;小児歯科;歯科口腔外科;矯正歯科,0.0,,
68,472140,1125,沖縄県,宮古島市,医療法人アマカ会　あだん歯科クリニック,イリョウホウジンアマカカイ　アダンシカクリニック,無床診療所,沖縄県宮古島市平良字久貝654-36,,24.79848409,125.2697743,(0980)79-0678,,,,,,,,,,,歯科;小児歯科;矯正歯科;口腔外科,0.0,,
69,472140,1126,沖縄県,宮古島市,宮古島デンタルオフィス,ミヤコジマデンタルオフィス,無床診療所,沖縄県宮古島市平良字東仲宗根493-1,,24.80452271,125.2901889,(0980)73-6480,,,,,,,,,,,歯科;歯科口腔外科;小児歯科;矯正歯科,0.0,,
70,472140,1127,沖縄県,宮古島市,サン　デンタルクリニック,サン　デンタルクリニック,無床診療所,沖縄県宮古島市平良字西里524-2,,24.7999564,125.2849172,,,,,,,,,,,,歯科;歯科口腔外科;小児歯科;矯正歯科,0.0,,
71,472140,1128,沖縄県,宮古島市,さわ矯正歯科医院,サワキョウセイシカイイン,無床診療所,沖縄県宮古島市平良久貝721-10,,24.79528442,125.2703437,(0980)79-9887,,,,,,,,,,,矯正歯科,0.0,,
72,472140,1129,沖縄県,宮古島市,医療法人髙森会　山本歯科医院,イリョウホウジンダカイモリカイ　ヤマモトシカイイン,無床診療所,沖縄県宮古島市平良字下里639‐1,,24.80118675,125.2794344,,,,,,,,,,,,歯科,0.0,,
73,472140,1130,沖縄県,宮古島市,ともくんデンタルクリニック,トモクンデンタルクリニック,無床診療所,沖縄県宮古島市平良下里695-3,1階,24.80038961,125.2798038,,,,,,,,,,,,歯科;小児歯科,0.0,,
1,473146,118,沖縄県,金武町,独立行政法人国立病院機構琉球病院　,ドクリツギョウセイホウジンコクリツビョウインキコウリュウキュウビョウイン　,病院,沖縄県金武町字金武7958‐1,,26.45151252,127.9108432,(098)968-2133,,,,,,,,,,,内科;精神科;神経科;歯科;児童精神科;麻酔科;リハビリテーション科,0.0,,
2,473146,145,沖縄県,金武町,厚生労働省第二共済組合国立療養所琉球病院所属診療所,コウセイロウドウショウダイニキョウサイクミアイコクリツリョウヨウジョリュウキュウビョウインショゾクシンリョウジョ,無床診療所,沖縄県金武町字金武7958‐1,,26.45151252,127.9108432,(098)968-2133,,,,,,,,,,,内科,0.0,,
3,473146,177,沖縄県,金武町,特別養護老人ホーム光が丘医務室,トクベツヨウゴロウジンホームヒカリガオカイムシツ,無床診療所,沖縄県金武町字伊芸1292‐1,,26.45778047,127.8677797,(098)968-4486,,,,,,,,,,,内科;外科;皮膚科;整形外科,0.0,,
4,473146,180,沖縄県,金武町,松原クリニック　,マツバラクリニック,無床診療所,沖縄県金武町字金武4231　,,26.4513765,127.9144235,(098)968-3961,,,,,,,,,,,皮膚科;内科;精神科;小児科;心療内科,0.0,,
5,473146,185,沖縄県,金武町,身体障害者療護施設松原園医務室,シンタイショウガイシャリョウゴシセツマツバラエンイムシツ,無床診療所,沖縄県金武町字金武4231　,,26.4513765,127.9144235,(098)968-3961,,,,,,,,,,,内科;外科;皮膚科;精神科;神経内科,0.0,,
6,473146,272,沖縄県,金武町,きんクリニック,キンクリニック,無床診療所,沖縄県金武町字金武94　,,26.45584022,127.9253307,(098)968-2145,,,,,,,,,,,内科;小児科;皮膚科,0.0,,
7,473146,298,沖縄県,金武町,おくまクリニック,オクマクリニック,無床診療所,沖縄県金武町字金武4790‐1,,26.45468466,127.9204562,(098)968-5017,,,,,,,,,,,内科;小児科;外科;整形外科;リハビリテーション科,0.0,,
8,473146,332,沖縄県,金武町,ＫＩＮスポーツ・整形クリニック,スポーツセイケイクリニック,無床診療所,沖縄県金武町字金武10912　,,26.45838491,127.9449123,(098)968-7700,,,,,,,,,,,整形外科;リハビリテーション科,0.0,,
9,473146,342,沖縄県,金武町,ＫＩＮ放射線治療・健診クリニック,ホウシャセンチリョウケンシンクリニック,無床診療所,沖縄県金武町字金武10897　,,26.46027639,127.9448399,(098)968-4664,,,,,,,,,,,内科;眼科;脳神経外科;放射線科;消化器内科;外科;乳腺外科,0.0,,
10,473146,434,沖縄県,金武町,ピッコロ歯科医院,ピッコロシカイイン,無床診療所,沖縄県金武町字伊芸85‐1,,26.45602256,127.8789789,(098)968-5000,,,,,,,,,,,歯科;口腔外科,0.0,,
11,473146,470,沖縄県,金武町,ひまわり歯科クリニック,ヒマワリシカクリニック,無床診療所,沖縄県金武町字金武399‐1,,26.45379589,127.9223311,(098)968-5544,,,,,,,,,,,歯科,0.0,,
12,473146,593,沖縄県,金武町,はりえ歯科口腔クリニック,ハリエシカコウクウクリニック,無床診療所,沖縄県金武町字金武57　,,26.45493753,127.9260279,(098)968-4180,,,,,,,,,,,歯科;小児歯科;歯科口腔外科,0.0,,
1,473014,17,沖縄県,国頭村,国頭村立診療所,クニガミソンリツシンリョウジョ,無床診療所,沖縄県国頭村字辺土名1437　,,26.74530973,128.1759932,(0980)41-5380,,,,,,,,,,,内科;小児科,0.0,,
2,473014,18,沖縄県,国頭村,特別養護老人ホーム北斗園医務室,トクベツヨウゴロウジンホームホクトエンイムシツ,無床診療所,沖縄県国頭村字辺土名1692　,,26.74068515,128.1748657,(0980)41-2743,,,,,,,,,,,内科,0.0,,
3,473014,54,沖縄県,国頭村,国頭村立東部へき地診療所,クニガミソンリツトウブヘキチシンリョウジョ,無床診療所,沖縄県国頭村字安田170　,,26.745505,128.3170981,(0980)41-7511,,,,,,,,,,,内科,0.0,,
4,473014,83,沖縄県,国頭村,国頭村立辺土名歯科診療所,クニガミソンリツヘントナシカシンリョウジョ,無床診療所,沖縄県国頭村字辺土名1458　,,26.74610131,128.1754182,(0980)41-5360,,,,,,,,,,,歯科,0.0,,
5,473014,107,沖縄県,国頭村,のと歯科,ノトシカ,無床診療所,沖縄県国頭村字辺土名2141-1,,26.74610122,128.1721491,(0980)41-2577,,,,,,,,,,,歯科;小児歯科,0.0,,
1,473065,6,沖縄県,今帰仁村,北山病院,キタヤマビョウイン,病院,沖縄県今帰仁村字今泊307　,,26.70327821,127.9296491,(0980)56-2339,,,,,,,,,,,内科;整形外科;リハリビテーション科;皮膚科,60.0,,
2,473065,19,沖縄県,今帰仁村,今帰仁診療所,ナキジンシンリョウジョ,無床診療所,沖縄県今帰仁村字謝名139　,,26.68531241,127.9670635,(0980)56-3581,,,,,,,,,,,内科;小児科;整形外科;眼科;耳鼻咽喉科,0.0,,
3,473065,20,沖縄県,今帰仁村,特別養護老人ホーム乙羽園医務室,トクベツヨウゴロウジンホームオトハエンイムシツ,無床診療所,沖縄県今帰仁村字天底222　,,26.67550285,127.9785213,(0980)56-3881,,,,,,,,,,,内科;外科,0.0,,
4,473065,88,沖縄県,今帰仁村,北山歯科医院,キタヤマシカイイン,無床診療所,沖縄県今帰仁村仲宗根279‐4,,26.68175759,127.9760129,(0980)56-5655,,,,,,,,,,,歯科,0.0,,
5,473065,97,沖縄県,今帰仁村,おっぱ歯科医院,オッパシカイイン,無床診療所,沖縄県今帰仁村字謝名621‐1,,26.68644833,127.9659857,(0980)56-1184,,,,,,,,,,,歯科;小児歯科,0.0,,
1,473545,752,沖縄県,座間味村,沖縄県立南部医療センター・こども医療センター附属阿嘉診療所,オキナワケンリツナンブイリョウセンター・コドモイリョウセンターフゾクアカシンリョウジョ,無床診療所,沖縄県座間味村阿嘉68,,26.19034247,127.2816231,(098)987-2002,,,,,,,,,,,内科;外科;小児科,0.0,,
2,473545,772,沖縄県,座間味村,沖縄県立南部医療センター・こども医療センター附属座間味診療所,オキナワケンリツナンブイリョウセンター・コドモイリョウセンターフゾクザマミシンリョウジョ,無床診療所,沖縄県座間味村字座間味441-1,,26.22967717,127.3028285,(098)987-2024,,,,,,,,,,,内科;外科;小児科,0.0,,
1,472107,613,沖縄県,糸満市,勝連病院,カツレンビョウイン,病院,沖縄県糸満市真栄平1026　,,26.11583017,127.714566,(098)997-3104,,,,,,,,,,,内科;精神科;心療内科;リハビリテーション科,0.0,,
2,472107,614,沖縄県,糸満市,南山病院,ミナミヤマビョウイン,病院,沖縄県糸満市字賀数406-1,,26.1519497,127.6922372,(098)994-3660,,,,,,,,,,,内科;精神科;心療内科;歯科,0.0,,
3,472107,618,沖縄県,糸満市,医療法人晴明会　糸満晴明病院,イリョウホウジンセイメイカイ　イトマンハレアキラビョウイン,病院,沖縄県糸満市字大度520　,,26.09886201,127.7076032,(098)997-2011,,,,,,,,,,,精神科;心療内科;歯科,0.0,,
4,472107,622,沖縄県,糸満市,ウェルネス西崎病院,ウェルネスニシザキビョウイン,病院,沖縄県糸満市字糸満2041-5,,26.13489175,127.6701248,(098)994-2582,,,,,,,,,,,内科;胃腸科,0.0,,
5,472107,628,沖縄県,糸満市,西崎病院,イリザキビョウイン,病院,沖縄県糸満市字座波371‐1,,26.14811649,127.6877376,(098)992-0055,,,,,,,,,,,内科;外科;整形外科;皮膚科;リハビリテーション科;泌尿器科;脳神経外科;小児科;胃腸科;こう門科;耳鼻咽喉科;腎臓内科;美容皮膚科,0.0,,
6,472107,641,沖縄県,糸満市,医療法人崇穂会　兼島医院,イリョウホウジンタカシホカイ　カネシマイイン,有床診療所,沖縄県糸満市字糸満1505‐2,,26.12573419,127.6741747,(098)992-4850,,,,,,,,,,,内科;外科;消化器内科;消化器外科;皮膚科;肛門外科;整形外科;泌尿器科;腎臓内科,0.0,,
7,472107,642,沖縄県,糸満市,くでけん小児科,クデケンショウニカ,無床診療所,沖縄県糸満市西崎6-11-8,,26.14361608,127.6691275,(098)994-2099,,,,,,,,,,,小児科,0.0,,
8,472107,643,沖縄県,糸満市,健孝クリニック,ケンタカシクリニック,無床診療所,沖縄県糸満市字潮平714-2,,26.1463216,127.6727356,(098)994-1177,,,,,,,,,,,内科;皮膚科,0.0,,
9,472107,644,沖縄県,糸満市,南部整形外科,ナンブセイケイゲカ,無床診療所,沖縄県糸満市字潮平714-2,,26.1463216,127.6727356,(098)994-1155,,,,,,,,,,,整形外科,0.0,,
10,472107,645,沖縄県,糸満市,医療法人水晶会　安里眼科,イリョウホウジンスイショウカイ　アサトガンカ,有床診療所,沖縄県糸満市字潮平722,,26.14625497,127.6731051,(098)994-1882,,,,,,,,,,,眼科,0.0,,
11,472107,646,沖縄県,糸満市,耳鼻咽喉科かおる医院,ジビインコウカカオルイイン,無床診療所,沖縄県糸満市字潮平705‐4,,26.14551886,127.6720857,(098)994-1133,,,,,,,,,,,耳鼻咽喉科;小児科,0.0,,
12,472107,647,沖縄県,糸満市,ハートフルクリニック,ハートフルクリニック,無床診療所,沖縄県糸満市字武富169-2,,26.16555171,127.6933453,(098)994-7436,,,,,,,,,,,内科;小児科;皮膚科;循環器科;神経内科;外科,0.0,,
13,472107,677,沖縄県,糸満市,かみや母と子のクリニック,カミヤハハトコノクリニック,有床診療所,沖縄県糸満市字阿波根1552‐2,,26.15158791,127.6725995,(098)995-3511,,,,,,,,,,,産婦人科;小児科,0.0,,
14,472107,678,沖縄県,糸満市,かみやクリニック,カミヤクリニック,無床診療所,沖縄県糸満市字阿波根1552-2,,26.15158791,127.6725995,(098)995-3377,,,,,,,,,,,整形外科;皮膚科;内科;リハビリテーション科,0.0,,
15,472107,679,沖縄県,糸満市,特別養護老人ホームいとまんシャトー,トクベツヨウゴロウジンホームイトマンシャトー,無床診療所,沖縄県糸満市字大里927‐2,,26.13535621,127.6917428,(098)995-2425,,,,,,,,,,,内科,0.0,,
16,472107,681,沖縄県,糸満市,障害者支援施設　ソフィア医務室,ショウガイシャシエンシセツ　ソフィアイムシツ,無床診療所,沖縄県糸満市字阿波根1029‐10,,26.15193813,127.6779326,(098)948-7631,,,,,,,,,,,内科,0.0,,
17,472107,682,沖縄県,糸満市,医療法人徳洲会　ひめゆりクリニック,イリョウホウジントクシュウカイ　ヒメユリクリニック,無床診療所,沖縄県糸満市字伊原107-1,,26.0947367,127.6847385,(098)997-3702,,,,,,,,,,,内科;外科;小児科;皮膚科;循環器科;整形外科,0.0,,
18,472107,687,沖縄県,糸満市,沖縄偕生園　医務室,オキナワカイセイエン　イムシツ,無床診療所,沖縄県糸満市字小波蔵321　,,26.10734934,127.6687644,(098)852-4100,,,,,,,,,,,内科,0.0,,
19,472107,695,沖縄県,糸満市,てるや眼科クリニック,テルヤガンカクリニック,無床診療所,沖縄県糸満市字糸満1266-1,,26.12592018,127.6699167,(098)992-0800,,,,,,,,,,,眼科,0.0,,
20,472107,701,沖縄県,糸満市,みなみしまクリニック,ミナミシマクリニック,無床診療所,沖縄県糸満市字潮平787‐17,,26.15097122,127.6714329,(098)840-3730,,,,,,,,,,,内科,0.0,,
21,472107,703,沖縄県,糸満市,aｍ皮膚科クリニック,アムヒフカクリニック,無床診療所,沖縄県糸満市字潮平787‐5,,26.15082122,127.6713273,(098)995-1212,,,,,,,,,,,皮膚科,0.0,,
22,472107,710,沖縄県,糸満市,医療法人水平会　豆の木クリニック,イリョウホウジンスイヘイカイ　マメノキクリニック,無床診療所,沖縄県糸満市字潮平764‐1,,26.14933801,127.6716218,(098)995-3030,,,,,,,,,,,内科;腎臓内科（人工透析）,0.0,,
23,472107,720,沖縄県,糸満市,障害者支援施設　更生ソフィア　医務室,ショウガイシャシエンシセツ　コウセイソフィア　イムシツ,無床診療所,沖縄県糸満市字阿波根1021,,26.15208815,127.6785436,(098)994-1717,,,,,,,,,,,内科;整形外科,0.0,,
24,472107,728,沖縄県,糸満市,がじまる診療所,ガジマルシンリョウジョ,無床診療所,沖縄県糸満市西崎2ｰ26‐6,,26.14038548,127.6626001,(098)851-3347,,,,,,,,,,,内科;小児科,0.0,,
38,472107,901,沖縄県,糸満市,大城歯科,オオシロシカ,無床診療所,沖縄県糸満市西崎2-43-3,,26.14219656,127.6652749,(098)994-7808,,,,,,,,,,,歯科,0.0,,
25,472107,729,沖縄県,糸満市,みんなのクリニック,ミンナノクリニック,無床診療所,沖縄県糸満市字真栄里2029-11,,26.12116777,127.6706251,(098)840-3733,,,,,,,,,,,内科;胃腸内科,0.0,,
26,472107,817,沖縄県,糸満市,糸満協同診療所,イトマンキョウドウシンリョウジョ,無床診療所,沖縄県糸満市潮崎町2ｰ1-10,,26.12371471,127.6673752,(098)992-3920,,,,,,,,,,,内科;整形外科,0.0,,
27,472107,834,沖縄県,糸満市,よしかわ整形クリニック,ヨシカワセイケイクリニック,無床診療所,沖縄県糸満市字真栄里2031-4,,26.12114831,127.6702306,(098)995-2525,,,,,,,,,,,整形外科;リハビリテーション科;内科;小児科;皮膚科,0.0,,
28,472107,851,沖縄県,糸満市,糸満南小児科・内科診療所,イトマンミナミショウニカ・ナイカシンリョウジョ,無床診療所,沖縄県糸満市潮崎町3ｰ23‐5,,26.11963997,127.665006,,,,,,,,,,,,小児科;内科,0.0,,
29,472107,854,沖縄県,糸満市,沖縄少年院医務課診療所,オキナワショウネンインイムカシンリョウジョ,無床診療所,沖縄県糸満市字真栄平1300　,,26.11022234,127.71543,(098)997-5100,,,,,,,,,,,小児科;外科,0.0,,
30,472107,861,沖縄県,糸満市,たまき耳鼻咽喉科クリニック,タマキジビインコウカクリニック,無床診療所,沖縄県糸満市字真栄里1432‐1,,26.1208567,127.6714694,(098)995-3387,,,,,,,,,,,耳鼻いんこう科,0.0,,
31,472107,866,沖縄県,糸満市,ノアーズ・ガーデン診療所,ノアーズ・ガーデンシンリョウジョ,無床診療所,沖縄県糸満市字大度1255　,,26.10417293,127.7172689,(098)851-7323,,,,,,,,,,,児童精神科,0.0,,
32,472107,872,沖縄県,糸満市,南部クリニック ,ナンブクリニック ,無床診療所,沖縄県糸満市西崎町5ｰ8‐10,,26.14410428,127.654267,(098)840-8221,,,,,,,,,,,内科;外科,0.0,,
33,472107,880,沖縄県,糸満市,いとまん在宅診療所,イトマンザイタクシンリョウジョ,無床診療所,沖縄県糸満市与座412-149,,26.13690066,127.6968396,,,,,,,,,,,,内科;小児科,0.0,,
34,472107,894,沖縄県,糸満市,きのしたこどもクリニック,キノシタコドモクリニック,無床診療所,沖縄県糸満市字真栄里2030‐3,,26.12137051,127.6698668,(098)995-1100,,,,,,,,,,,小児科,0.0,,
35,472107,898,沖縄県,糸満市,あはごん歯科,アハゴンシカ,無床診療所,沖縄県糸満市潮平771-2,花城ｱﾊﾟｰﾄ1F,26.14973803,127.6723634,(098)994-6480,,,,,,,,,,,歯科;小児歯科,0.0,,
36,472107,899,沖縄県,糸満市,い歯科医院,イシカイイン,無床診療所,沖縄県糸満市字潮平606-1,,26.14404676,127.6727857,(098)994-1827,,,,,,,,,,,歯科,0.0,,
37,472107,900,沖縄県,糸満市,上原歯科クリニック,ウエハラシカクリニック,無床診療所,沖縄県糸満市西崎6-15-2,,26.14332722,127.6693858,(098)992-2888,,,,,,,,,,,歯科,0.0,,
39,472107,902,沖縄県,糸満市,ファミリー歯科クリニック,ファミリーシカクリニック,無床診療所,沖縄県糸満市西崎町3-493,,26.14966287,127.6693329,(098)992-1818,,,,,,,,,,,歯科;小児歯科;矯正歯科;歯科口腔外科,0.0,,
40,472107,903,沖縄県,糸満市,ふてんま歯科クリニック,フテンマシカクリニック,無床診療所,沖縄県糸満市西崎町6-19-3,西崎21ﾌﾟﾗｻﾞ2F,26.14717397,127.6655609,(098)994-8941,,,,,,,,,,,歯科,0.0,,
41,472107,904,沖縄県,糸満市,フレンド歯科医院,フレンドシカイイン,無床診療所,沖縄県糸満市西崎2-7-14,ｸﾞﾗﾝﾄﾞﾊｲﾑ西崎1F,26.14392697,127.6647749,(098)994-4618,,,,,,,,,,,歯科,0.0,,
42,472107,929,沖縄県,糸満市,まえざと歯科,マエザトシカ,無床診療所,沖縄県糸満市真栄里2058-2,ﾘｰﾌﾞﾙ沖縄1階,26.11998448,127.6688085,(098)995-0542,,,,,,,,,,,歯科;小児歯科;矯正歯科,0.0,,
43,472107,933,沖縄県,糸満市,しおひら歯科医院,シオヒラシカイイン,無床診療所,沖縄県糸満市字潮平619-2,,26.14524392,127.6729579,(098)992-1110,,,,,,,,,,,歯科,0.0,,
44,472107,934,沖縄県,糸満市,かみや歯科クリニック,カミヤシカクリニック,無床診療所,沖縄県糸満市字潮平798-4,,26.15263223,127.6715828,(098)994-2000,,,,,,,,,,,歯科;歯科口腔外科,0.0,,
45,472107,936,沖縄県,糸満市,サンプラザ糸満歯科クリニック,サンプラザイトマンシカクリニック,無床診療所,沖縄県糸満市字兼城400　,,26.13943876,127.6729913,(098)992-0311,,,,,,,,,,,歯科,0.0,,
46,472107,937,沖縄県,糸満市,かしわ歯科,カシワシカ,無床診療所,沖縄県糸満市糸満1473-2,1F,26.12612859,127.6737164,(098)992-4171,,,,,,,,,,,歯科,0.0,,
47,472107,941,沖縄県,糸満市,アサヒ歯科医院,アサヒシカイイン,無床診療所,沖縄県糸満市糸満1278-2,1F,26.12558965,127.6701583,(098)994-0900,,,,,,,,,,,歯科,0.0,,
48,472107,944,沖縄県,糸満市,かなばやし歯科,カナバヤシシカ,無床診療所,沖縄県糸満市賀数469　,ﾆｭｰﾜｰﾙﾄﾞ101,26.15089138,127.6901012,(098)992-6480,,,,,,,,,,,歯科;小児歯科,0.0,,
49,472107,955,沖縄県,糸満市,やすだ歯科医院,ヤスダシカイイン,無床診療所,沖縄県糸満市字糸満1922,,26.13045612,127.6757107,(098)852-3301,,,,,,,,,,,歯科;小児歯科,0.0,,
50,472107,957,沖縄県,糸満市,あおば歯科医院,アオバシカイイン,無床診療所,沖縄県糸満市字福地165-1,,26.09866405,127.6765807,(098)997-4019,,,,,,,,,,,歯科,0.0,,
51,472107,1022,沖縄県,糸満市,上原歯科医院,ウエハラシカイイン,無床診療所,沖縄県糸満市糸満1367‐1,,26.12915056,127.6724859,,,,,,,,,,,,歯科;小児歯科,0.0,,
52,472107,1036,沖縄県,糸満市,糸満ロータリー歯科,イトマンロータリーシカ,無床診療所,沖縄県糸満市字糸満591　,,26.12958378,127.6695444,(098)992-0418,,,,,,,,,,,歯科;歯科口腔外科;小児歯科,0.0,,
53,472107,1049,沖縄県,糸満市,サンエーしおざきシティオレンジ歯科　えがおとママとこどもの予防の歯医者さん,サンエーシオザキシティオレンジシカ　エガオトママトコドモノヨボウノハイシャサン,無床診療所,沖縄県糸満市潮崎町2ｰ2　,,26.12462301,127.6686918,(098)987-7878,,,,,,,,,,,歯科;歯科口腔外科;小児歯科;矯正歯科,0.0,,
54,472107,1051,沖縄県,糸満市,潮崎デンタルクリニック,シオザキデンタルクリニック,無床診療所,沖縄県糸満市潮崎町2-1-15,上原ｱﾊﾟｰﾄ1F101,26.1245952,127.6671863,(098)987-4201,,,,,,,,,,,歯科;小児歯科;矯正歯科;歯科口腔外科,0.0,,
1,473294,625,沖縄県,西原町,琉球大学病院,リュウキュウダイガクビョウイン,病院,沖縄県西原町字上原207　,,26.24173927,127.7597401,(098)895-3331,,,,,,,,,,,内科;外科;心臓血管外科;整形外科;脳神経外科;形成外科;精神科;小児科;皮膚科;泌尿器科;産科;婦人科;眼科;耳鼻咽喉科;リハビリテーション科;放射線科;病理診断科;救急科;歯科口腔外科;神経科;呼吸器科;消化器科;循環器科;麻酔科,0.0,,
2,473294,626,沖縄県,西原町,アドベンチストメディカルセンター,アドベンチストメディカルセンター,病院,沖縄県西原町字幸地868　,,26.22938719,127.7407197,(098)946-2833,,,,,,,,,,,内科;小児科;外科;婦人科;皮膚科;歯科;矯正歯科;小児歯科;整形外科;歯科口腔外科;緩和医療科,0.0,,
3,473294,648,沖縄県,西原町,太田小児科医院,オオタショウニカイイン,無床診療所,沖縄県西原町字小橋川164‐1,,26.22607151,127.7638821,(098)946-5081,,,,,,,,,,,小児科;児童精神科,0.0,,
4,473294,649,沖縄県,西原町,医療法人和み会　城間医院,イリョウホウジンナゴミカイ　シロマイイン,無床診療所,沖縄県西原町字翁長240-7,,26.22887373,127.7538382,(098)945-4551,,,,,,,,,,,内科;精神科;神経科,0.0,,
5,473294,650,沖縄県,西原町,のびのび整形外科,ノビノビセイケイゲカ,無床診療所,沖縄県西原町棚原1ｰ21‐8,,26.24188356,127.7537933,(098)946-5717,,,,,,,,,,,整形外科;リハビリテーション科;内科;放射線科,0.0,,
6,473294,675,沖縄県,西原町,しらかわ内科,シラカワナイカ,無床診療所,沖縄県西原町棚原1ｰ20‐10,,26.24178914,127.7547849,(098)944-3550,,,,,,,,,,,内科;小児科,0.0,,
7,473294,683,沖縄県,西原町,あいわクリニック,アイワクリニック,無床診療所,沖縄県西原町字池田766‐2,,26.22044093,127.7438976,(098)946-5558,,,,,,,,,,,内科;小児科;リハビリテーション科,0.0,,
8,473294,685,沖縄県,西原町,琉球大学保健管理センター,リュウキュウダイガクホケンカンリセンター,無床診療所,沖縄県西原町字千原1　,,26.24742496,127.7648367,(098)895-8144,,,,,,,,,,,外科;精神科;内科,0.0,,
9,473294,692,沖縄県,西原町,にしはら耳鼻咽喉科,ニシハラジビインコウカ,無床診療所,沖縄県西原町字小波津3-6,,26.22696285,127.755366,(098)944-1055,,,,,,,,,,,耳鼻咽喉科,0.0,,
10,473294,696,沖縄県,西原町,SAKU整形クリニック,サクセイケイクリニック,無床診療所,沖縄県西原町字小波津3-5,,26.22673787,127.7552438,(098)882-0001,,,,,,,,,,,リウマチ科;外科;整形外科;リハビリテーション科,0.0,,
11,473294,697,沖縄県,西原町,にしはら皮フ科,ニシハラカワフカ,無床診療所,沖縄県西原町字小波津3‐5,,26.22673787,127.7552438,(098)946-0112,,,,,,,,,,,皮膚科,0.0,,
12,473294,698,沖縄県,西原町,しんざと内科,シンザトナイカ,無床診療所,沖縄県西原町字小波津3-5,,26.22673787,127.7552438,(098)946-5500,,,,,,,,,,,内科;呼吸器科;消化器科;循環器科;アレルギー科;リウマチ科;小児科,0.0,,
13,473294,704,沖縄県,西原町,うるま婦人寮診療所,ウルマフジンリョウシンリョウジョ,無床診療所,沖縄県西原町字兼久110-2,,26.21701413,127.7662073,(098)945-6151,,,,,,,,,,,内科,0.0,,
14,473294,712,沖縄県,西原町,玄米クリニック,ゲンマイクリニック,無床診療所,沖縄県西原町翁長834　,ﾄﾑｽﾞｴﾝﾀｰﾌﾟﾗｲｽﾞﾋﾞﾙ2F,26.23618133,127.753713,(098)944-6663,,,,,,,,,,,内科;循環器科,0.0,,
15,473294,718,沖縄県,西原町,特別養護老人ホーム守礼の里診療所,トクベツヨウゴロウジンホームシュレイノサトシンリョウジョ,無床診療所,沖縄県西原町字掛保久346　,,26.23343492,127.7731866,(098)945-0028,,,,,,,,,,,内科,0.0,,
16,473294,723,沖縄県,西原町,南西石油　医務室,ナンセイセキユ　イムシツ,無床診療所,沖縄県西原町字小那覇858　,,26.22683298,127.7796031,(098)945-3335,,,,,,,,,,,内科,0.0,,
17,473294,732,沖縄県,西原町,ハートライフクリニック ,ハートライフクリニック ,無床診療所,沖縄県西原町字掛保久288　,,26.23622906,127.7723004,(098)882-0810,,,,,,,,,,,内科;糖尿病内科;小児科,0.0,,
18,473294,804,沖縄県,西原町,ゆいゆい内科クリニック,ユイユイナイカクリニック,無床診療所,沖縄県西原町字我謝786-11,,26.21310605,127.761244,(098)946-0055,,,,,,,,,,,内科;糖尿病内科,0.0,,
19,473294,824,沖縄県,西原町,いちょう内科あしとみ,イチョウナイカアシトミ,無床診療所,沖縄県西原町字内間345-2,,26.2308684,127.7691315,(098)944-4444,,,,,,,,,,,内科;小児科;皮膚科;消化器内科,0.0,,
20,473294,828,沖縄県,西原町,しろま眼科クリニック,シロマガンカクリニック,無床診療所,沖縄県西原町字小橋川154‐13,,26.22573267,127.7646042,,,,,,,,,,,,眼科,0.0,,
21,473294,849,沖縄県,西原町,とうま内科　,トウマナイカ　,有床診療所,沖縄県西原町字幸地973‐3,,26.22733446,127.7360896,(098)946-3799,,,,,,,,,,,内科,0.0,,
22,473294,889,沖縄県,西原町,貴クリニック,キクリニック,無床診療所,沖縄県西原町小那覇266-1,3F,26.22402455,127.7660098,,,,,,,,,,,,形成外科;美容外科;皮膚科,0.0,,
23,473294,890,沖縄県,西原町,こころ耳鼻咽喉科,ココロジビインコウカ,無床診療所,沖縄県西原町小那覇266‐1,ﾒﾃﾞｨｶﾙﾌﾟﾗｻﾞにしはらﾊｰﾄ4F,26.22402455,127.7660098,(098)988-3363,,,,,,,,,,,耳鼻咽喉科;頭頸部外科;小児科,0.0,,
24,473294,891,沖縄県,西原町,KAZUクリニック,カズクリニック,無床診療所,沖縄県西原町小那覇266‐1,ﾒﾃﾞｨｶﾙﾌﾟﾗｻﾞにしはらﾊｰﾄ2F,26.22402455,127.7660098,,,,,,,,,,,,整形外科;リハビリテーション科,0.0,,
25,473294,892,沖縄県,西原町,国島病理診断科クリニック,クニシマビョウリシンダンカクリニック,無床診療所,沖縄県西原町棚原1-10-19,,26.24403616,127.7550931,,,,,,,,,,,,病理診断科,0.0,,
26,473294,905,沖縄県,西原町,あらかわ歯科,アラカワシカ,無床診療所,沖縄県西原町字我謝241-66,,26.21426428,127.7615272,(098)944-1555,,,,,,,,,,,歯科;小児歯科,0.0,,
27,473294,906,沖縄県,西原町,石川歯科医院,イシカワシカイイン,無床診療所,沖縄県西原町字嘉手苅78-1,,26.22682985,127.7670207,(098)945-6214,,,,,,,,,,,歯科;小児歯科;矯正歯科,0.0,,
28,473294,907,沖縄県,西原町,平良歯科クリニック,タイラシカクリニック,無床診療所,沖縄県西原町字小那覇639,,26.22184142,127.7660182,(098)945-7748,,,,,,,,,,,歯科;小児歯科,0.0,,
29,473294,908,沖縄県,西原町,備瀬歯科医院,ビセシカイイン,無床診療所,沖縄県西原町字兼久4-2,,26.2176029,127.763738,(098)946-0689,,,,,,,,,,,歯科;小児歯科;矯正歯科,0.0,,
30,473294,909,沖縄県,西原町,南歯科医院,ミナミシカイイン,無床診療所,沖縄県西原町字翁長240-5,,26.22814604,127.7543299,(098)946-3574,,,,,,,,,,,歯科,0.0,,
31,473294,930,沖縄県,西原町,まちだ歯科クリニック,マチダシカクリニック,無床診療所,沖縄県西原町字翁長504,,26.23709775,127.7475634,(098)944-2700,,,,,,,,,,,歯科,0.0,,
32,473294,931,沖縄県,西原町,さわふじ歯科,サワフジシカ,無床診療所,沖縄県西原町字呉屋93-1,,26.22592416,127.7587547,(098)946-5188,,,,,,,,,,,歯科;小児歯科;矯正歯科,0.0,,
33,473294,938,沖縄県,西原町,サンユー歯科,サンユーシカ,無床診療所,沖縄県西原町小橋川154-5,玉那覇ﾋﾞﾙ1F,26.22564658,127.7648403,(098)944-6990,,,,,,,,,,,歯科,0.0,,
34,473294,964,沖縄県,西原町,伊熊歯科,イクマシカ,無床診療所,沖縄県西原町字呉屋108-2,,26.22731005,127.7556159,(098)994-3669,,,,,,,,,,,歯科;歯科口腔外科;小児歯科;矯正歯科,0.0,,
1,472077,1131,沖縄県,石垣市,かりゆし病院,カリユシビョウイン,病院,沖縄県石垣市字新川2124,,24.36103465,124.1409377,(0980)83-5600,,,,,,,,,,,内科;消化器科;リハビリテーション科;循環器科;呼吸器科;神経内科,0.0,,
2,472077,1132,沖縄県,石垣市,医療法人徳洲会　石垣島徳洲会病院,イリョウホウジントクシュウカイ　イシガキジマトクシュウカイビョウイン,病院,沖縄県石垣市大浜南大浜446‐1,,24.34388787,124.1974177,(0980)88-0123,,,,,,,,,,,内科;外科;整形外科;呼吸器内科;消化器外科; 泌尿器科;循環器内科;心臓血管外科;人工透析内科; 肛門外科;救急科;臨床検査科;リハビリテーション科; 放射線科;乳腺外科;皮膚科,0.0,,
3,472077,1133,沖縄県,石垣市,沖縄県立八重山病院,オキナワケンリツヤエヤマビョウイン,病院,沖縄県石垣市真栄里584-1,,24.34346367,124.1838654,(0980)87-5557,,,,,,,,,,,内科;呼吸器内科;消化器内科;循環器内科;神経内科;外科;呼吸器外科;消化器外科;脳神経外科;整形外科;精神科;小児科;皮膚科;泌尿器科;産科;婦人科;眼科;耳鼻咽喉科;リハビリテーション科;救急科;麻酔科;放射線科;腎臓内科;歯科口腔外科,0.0,,
4,472077,1134,沖縄県,石垣市,よなは医院,ヨナハイイン,無床診療所,沖縄県石垣市字新川2287-35,,24.35171836,124.1449872,(0980)83-4781,,,,,,,,,,,内科;腎臓内科;糖尿病内科;リウマチ科;皮膚科,0.0,,
5,472077,1135,沖縄県,石垣市,下地第２脳神経外科,シモジダイ２ノウシンケイゲカ,有床診療所,沖縄県石垣市字新川1695-123,,24.36254664,124.1204608,(0980)88-5150,,,,,,,,,,,脳神経外科;外科;整形外科;リハビリテーション科;内科;小児科;皮膚科;放射線科,0.0,,
6,472077,1136,沖縄県,石垣市,八重山厚生園    医務室,ヤエヤマコウセイエン    イムシツ,無床診療所,沖縄県石垣市新川1740-2,,24.35948006,124.1230217,(0980)82-2334,,,,,,,,,,,精神科;内科,0.0,,
7,472077,1138,沖縄県,石垣市,下地脳神経外科,シモジノウシンケイゲカ,無床診療所,沖縄県石垣市字登野城644-19,,24.33775679,124.1680966,(0980)88-7300,,,,,,,,,,,脳神経外科;外科;整形外科;内科;放射線科;リハビリテーション科,0.0,,
8,472077,1140,沖縄県,石垣市,やいま中央クリニック,ヤイマチュウオウクリニック,無床診療所,沖縄県石垣市字平得120-3,,24.34067571,124.1725881,(0980)88-7711,,,,,,,,,,,内科;消化器科;循環器科;呼吸器科;小児科;放射線科;リハビリテーション科,0.0,,
9,472077,1141,沖縄県,石垣市,石垣市健康福祉センター検診室,イシガキシケンコウフクシセンターケンシンシツ,無床診療所,沖縄県石垣市字登野城1357-1,,24.34795026,124.171119,(0980)88-0088,,,,,,,,,,,内科,0.0,,
22,472077,1161,沖縄県,石垣市,ひとし眼科,ヒトシガンカ,無床診療所,沖縄県石垣市字真栄里108‐4,,24.33239312,124.1712962,(0980)88-5121,,,,,,,,,,,眼科,0.0,,
10,472077,1142,沖縄県,石垣市,障がい者支援施設　ハーモニー医務室,ショウガイシャシエンシセツ　ハーモニーイムシツ,無床診療所,沖縄県石垣市字大浜1349-79,,24.35513358,124.2038732,(0980)82-0202,,,,,,,,,,,内科,0.0,,
11,472077,1144,沖縄県,石垣市,沖縄県八重山保健所,オキナワケンヤエヤマホケンジョ,無床診療所,沖縄県石垣市真栄里438,,24.34032209,124.1872374,(0980)82-3240,,,,,,,,,,,内科,0.0,,
12,472077,1145,沖縄県,石垣市,国土交通省共済組合  石垣海上保安部診療所,コクドコウツウショウキョウサイクミアイ  イシガキカイジョウホアンブシンリョウジョ,無床診療所,沖縄県石垣市浜崎町1-1-8,,24.33925208,124.1528447,(0980)83-0118,,,,,,,,,,,内科,0.0,,
13,472077,1148,沖縄県,石垣市,上原内科医院,ウエハラナイカイイン,無床診療所,沖縄県石垣市字登野城548‐4,,24.3345571,124.1672966,(0980)88-7078,,,,,,,,,,,内科;小児科,0.0,,
14,472077,1149,沖縄県,石垣市,愛島クリニック,アイジマクリニック,無床診療所,沖縄県石垣市真栄里108‐7,1F,24.33232651,124.1705324,(0980)88-1212,,,,,,,,,,,皮膚科;美容皮膚科,0.0,,
15,472077,1150,沖縄県,石垣市,ヒデ整形クリニック,ヒデセイケイクリニック,無床診療所,沖縄県石垣市真栄里108‐3,,24.33254035,124.1710074,(0980)84-1155,,,,,,,,,,,整形外科;リハビリテーション科,0.0,,
16,472077,1154,沖縄県,石垣市,よしもとこどもクリニック,ヨシモトコドモクリニック,無床診療所,沖縄県石垣市字登野城1024‐1,,24.34317558,124.1715605,(0980)88-6688,,,,,,,,,,,小児科;アレルギー科,0.0,,
17,472077,1155,沖縄県,石垣市,社会福祉法人沖縄松楓会特別養護老人ホーム  なごみの里医務室,シャカイフクシホウジンオキナワマツカエデカイトクベツヨウゴロウジンホーム  ナゴミノサトイムシツ,無床診療所,沖縄県石垣市字宮良1131-2,,24.36376535,124.2155119,(0980)86-8316,,,,,,,,,,,内科;皮膚科;外科;精神科,0.0,,
18,472077,1156,沖縄県,石垣市,八重山クリニック,ヤエヤマクリニック,有床診療所,沖縄県石垣市字大川578-37,,24.34978412,124.1618779,(0980)82-0319,,,,,,,,,,,産科;婦人科;内科;小児科,0.0,,
19,472077,1157,沖縄県,石垣市,宮良内科胃腸科医院,ミヤラナイカイチョウカイイン,無床診療所,沖縄県石垣市字新川27,,24.34438219,124.1542865,(0980)82-4181,,,,,,,,,,,内科;呼吸器科;胃腸科;循環器科;小児科;放射線科;リハビリテーション科,0.0,,
20,472077,1158,沖縄県,石垣市,博愛医院,ハクアイイイン,無床診療所,沖縄県石垣市字大川179-7,,24.34132097,124.1593805,(0980)82-3170,,,,,,,,,,,内科;循環器科;胃腸科,0.0,,
21,472077,1160,沖縄県,石垣市,南西耳鼻咽喉科医院,ナンセイジビインコウカイイン,無床診療所,沖縄県石垣市字真栄里97-4,,24.33426259,124.1687437,(0980)83-0001,,,,,,,,,,,耳鼻いんこう科,0.0,,
23,472077,1162,沖縄県,石垣市,大浜診療所,オオハマシンリョウジョ,無床診療所,沖縄県石垣市字大浜36　,,24.34376294,124.1963594,(0980)87-5093,,,,,,,,,,,内科;循環器内科,0.0,,
24,472077,1163,沖縄県,石垣市,まつをレディースクリニック,マツヲレディースクリニック,無床診療所,沖縄県石垣市真栄里233-3,,24.33517029,124.1778126,(0980)83-4822,,,,,,,,,,,産婦人科,0.0,,
25,472077,1164,沖縄県,石垣市,てるや内科胃腸科,テルヤナイカイチョウカ,無床診療所,沖縄県石垣市新川127-3,,24.34865993,124.1502979,(0980)88-1616,,,,,,,,,,,内科;胃腸科,0.0,,
26,472077,1165,沖縄県,石垣市,にいむら内科胃腸科クリニック,ニイムラナイカイチョウカクリニック,無床診療所,沖縄県石垣市字真栄里243-1,,24.33483972,124.1786182,(0980)83-7771,,,,,,,,,,,内科;胃腸科;小児科;眼科;整形外科;皮膚科,0.0,,
27,472077,1166,沖縄県,石垣市,とみやま耳鼻咽喉科,トミヤマジビインコウカ,無床診療所,沖縄県石垣市新川2427,ｶﾒﾔﾝｺ-ﾄ101,24.34877942,124.1492591,(0980)88-8741,,,,,,,,,,,耳鼻いんこう科;小児科,0.0,,
28,472077,1167,沖縄県,石垣市,宮良眼科医院,ミヤラガンカイイン,有床診療所,沖縄県石垣市字大川140,,24.3430707,124.1616527,(0980)82-3068,,,,,,,,,,,眼科,0.0,,
29,472077,1168,沖縄県,石垣市,やしのきクリニック,ヤシノキクリニック,無床診療所,沖縄県石垣市字大川579-5,,24.34984798,124.1622779, (0980)88-1184,,,,,,,,,,,心療内科;精神科;美容内科,0.0,,
30,472077,1169,沖縄県,石垣市,コーラルクリニック,コーラルクリニック,無床診療所,沖縄県石垣市浜崎町3-3-9,,24.34038283,124.1483561,(0980)87-5698,,,,,,,,,,,整形外科;内科,0.0,,
31,472077,1170,沖縄県,石垣市,くろしま整形外科,クロシマセイケイゲカ,無床診療所,沖縄県石垣市登野城1016‐1,,24.34185626,124.1713188,(0980)83-4154,,,,,,,,,,,整形外科;リハビリテーション科,0.0,,
32,472077,1171,沖縄県,石垣市,特別養護老人ホーム　まえさと茶寿苑　医務室,トクベツヨウゴロウジンホーム　マエサトチャヒサシソノ　イムシツ,無床診療所,沖縄県石垣市真栄里204-382,,24.33237348,124.1744599,(0980)82-0080  ,,,,,,,,,,,内科,0.0,,
33,472077,1173,沖縄県,石垣市,小田内科医院,オダナイカイイン,無床診療所,沖縄県石垣市登野城319‐2,ﾒｿﾞﾝ321-A号室,24.34182881,124.1663329,(0980)83-8001,,,,,,,,,,,内科,0.0,,
34,472077,1174,沖縄県,石垣市,のびのび子育て　くまさか医院,ノビノビコソダテ　クマサカイイン,無床診療所,沖縄県石垣市字登野城1470‐1,,24.34921947,124.1732162,,,,,,,,,,,,精神科;小児科,0.0,,
35,472077,1175,沖縄県,石垣市,まるの脳神経クリニック,マルノノウシンケイクリニック,無床診療所,沖縄県石垣市新川121　,,24.3479767,124.1491868, (0980)82-8800 ,,,,,,,,,,,脳神経外科;内科;放射線科,0.0,,
36,472077,1176,沖縄県,石垣市,ぬちぐすい診療所,ヌチグスイシンリョウジョ,無床診療所,沖縄県石垣市登野城623-6,,24.33680414,124.1671577,,,,,,,,,,,,内科;小児科,0.0,,
37,472077,1185,沖縄県,石垣市,竹富町立新型コロナウイルスワクチン接種（石垣）診療所,タケトミチョウリツシンガタコロナウイルスワクチンセッシュ（イシガキ）シンリョウジョ,無床診療所,沖縄県石垣市美崎町11‐1,竹富町役場仮設庁舎,24.34002693,124.1544002,,,,,,,,,,,,,0.0,,
38,472077,1186,沖縄県,石垣市,おおかわ歯科,オオカワシカ,無床診療所,沖縄県石垣市大川431-3,,24.34632324,124.1617917,(0980)88-5528,,,,,,,,,,,歯科;歯科口腔外科;小児歯科,0.0,,
39,472077,1187,沖縄県,石垣市,つばき歯科医院,ツバキシカイイン,無床診療所,沖縄県石垣市真栄里91-1,,24.33397366,124.169688,(0980)83-7888,,,,,,,,,,,歯科;小児歯科,0.0,,
40,472077,1188,沖縄県,石垣市,すながわ歯科,スナガワシカ,無床診療所,沖縄県石垣市登野城70-4,2階,24.33823227,124.1599554,(0980)82-2033,,,,,,,,,,,歯科;歯科口腔外科,0.0,,
41,472077,1189,沖縄県,石垣市,やましろ歯科クリニック,ヤマシロシカクリニック,無床診療所,沖縄県石垣市登野城618,山興ﾋﾞﾙ2階,24.33731808,124.1657662,(0980)83-3418,,,,,,,,,,,歯科;歯科口腔外科,0.0,,
42,472077,1191,沖縄県,石垣市,ミルク歯科,ミルクシカ,無床診療所,沖縄県石垣市白保268-29,,24.3509667,124.2374612,(0980)86-8148,,,,,,,,,,,歯科;小児歯科;歯科口腔外科,0.0,,
43,472077,1192,沖縄県,石垣市,さんあい歯科クリニック,サンアイシカクリニック,無床診療所,沖縄県石垣市字真栄里490-7,,24.33825583,124.1833514,(0980)83-5515,,,,,,,,,,,歯科;小児歯科;歯科口腔外科,0.0,,
44,472077,1193,沖縄県,石垣市,やいま歯科医院,ヤイマシカイイン,無床診療所,沖縄県石垣市登野城630-19,,24.33632902,124.1696659,(0980)88-1234,,,,,,,,,,,歯科;小児歯科;矯正歯科;歯科口腔外科,0.0,,
45,472077,1194,沖縄県,石垣市,サトウ歯科,サトウシカ,無床診療所,沖縄県石垣市大川198-11,2階,24.33976832,124.1590916,(0980)88-8181,,,,,,,,,,,歯科;小児歯科,0.0,,
46,472077,1196,沖縄県,石垣市,おおはま歯科医院,オオハマシカイイン,無床診療所,沖縄県石垣市登野城655-8,1階,24.33762633,124.1665995,(0980)83-6480,,,,,,,,,,,歯科,0.0,,
47,472077,1198,沖縄県,石垣市,みやら歯科医院,ミヤラシカイイン,無床診療所,沖縄県石垣市八島町1-8-3,,24.33465754,124.1601775,(0980)83-4333,,,,,,,,,,,歯科,0.0,,
48,472077,1199,沖縄県,石垣市,かんな歯科クリニック,カンナシカクリニック,無床診療所,沖縄県石垣市新川2444-1,,24.35139322,124.1478231,(0980)88-5454,,,,,,,,,,,歯科,0.0,,
49,472077,1200,沖縄県,石垣市,森岡歯科医院,モリオカシカイイン,無床診療所,沖縄県石垣市新栄町70-3,,24.34634343,124.1499812,(0980)83-5233,,,,,,,,,,,歯科;矯正歯科;小児歯科;歯科口腔外科,0.0,,
50,472077,1201,沖縄県,石垣市,サザン歯科クリニック,サザンシカクリニック,無床診療所,沖縄県石垣市登野城2-6,ｻﾝﾄﾞﾘﾊﾞ-ﾋﾞﾙ2階,24.33670744,124.1591971,(0980)83-4658,,,,,,,,,,,歯科,0.0,,
51,472077,1202,沖縄県,石垣市,大山歯科医院,オオヤマシカイイン,無床診療所,沖縄県石垣市新栄町12-9,,24.34309063,124.1539448,(0980)82-1608,,,,,,,,,,,歯科,0.0,,
52,472077,1203,沖縄県,石垣市,しおがい歯科医院,シオガイシカイイン,無床診療所,沖縄県石垣市大川262　,,24.34025177,124.1565862,(0980)83-5390,,,,,,,,,,,歯科,0.0,,
53,472077,1204,沖縄県,石垣市,宇江城デンタルクリニック,ウエシロデンタルクリニック,無床診療所,沖縄県石垣市大川23　,,24.34035989,124.1599999,(0980)83-4182,,,,,,,,,,,歯科,0.0,,
54,472077,1206,沖縄県,石垣市,柴田ファミリー歯科,シバタファミリーシカ,無床診療所,沖縄県石垣市真栄里204-375,1F,24.33340109,124.1757766,(0980)88-7060,,,,,,,,,,,歯科;小児歯科;歯科口腔外科;矯正歯科,0.0,,
55,472077,1207,沖縄県,石垣市,新城歯科医院,シンジョウシカイイン,無床診療所,沖縄県石垣市大川273　,,24.3402962,124.1569556,(0980)82-4561,,,,,,,,,,,歯科,0.0,,
56,472077,1208,沖縄県,石垣市,コーラル・デンタル,コーラル・デンタル,無床診療所,沖縄県石垣市浜崎町3-3-9,1F,24.34038283,124.1483561,,,,,,,,,,,,歯科;矯正歯科;歯科口腔外科;小児歯科,0.0,,
57,472077,1209,沖縄県,石垣市,みやらデンタルクリニック,ミヤラデンタルクリニック,無床診療所,沖縄県石垣市新川31-2,,24.34465716,124.1544309,(0980)87-7717,,,,,,,,,,,歯科;小児歯科;歯科口腔外科,0.0,,
1,473758,1093,沖縄県,多良間村,沖縄県立宮古病院付属多良間診療所,オキナワケンリツミヤコビョウインフゾクタラマシンリョウジョ,無床診療所,沖縄県多良間村字塩川162-3,,24.6691269,124.7018355,(0980)79-2101,,,,,,,,,,,内科;小児科;外科,0.0,,
1,473022,21,沖縄県,大宜味村,特別養護老人ホームやんばるの家,トクベツヨウゴロウジンホームヤンバルノイエ,無床診療所,沖縄県大宜味村字津波1971-35,,26.65610822,128.1071075,(0980)44-2288,,,,,,,,,,,内科;眼科,0.0,,
2,473022,59,沖縄県,大宜味村,大宜味村立診療所 ,オオギミソンリツシンリョウジョ ,無床診療所,沖縄県大宜味村字塩屋1306‐62,,26.67779471,128.1011129,(0980)50-5450,,,,,,,,,,,内科;小児科;心療内科;精神科;外科;眼科;消化器内科;皮膚科,0.0,,
3,473022,66,沖縄県,大宜味村,社会福祉法人一心福祉会　障害者支援施設　一心福祉会「医務室」,シャカイフクシホウジンイッシンフクシカイ　ショウガイシャシエンシセツ　イッシンフクシカイ「イムシツ」,無床診療所,沖縄県大宜味村字津波1971‐35,,26.65610822,128.1071075,(0980)44-2234,,,,,,,,,,,内科;外科,0.0,,
4,473022,76,沖縄県,大宜味村,召団沖縄クリニック,ショウダンオキナワクリニック,無床診療所,沖縄県大宜味村字津波1971-195,,26.63862927,128.100086,,,,,,,,,,,,精神科,0.0,,
5,473022,81,沖縄県,大宜味村,大宜味村立歯科診療所,オオギミソンリツシカシンリョウジョ,無床診療所,沖縄県大宜味村字塩屋987-3,,26.67514505,128.1035128,(0980)44-3840,,,,,,,,,,,歯科;小児歯科,0.0,,
1,473812,1139,沖縄県,竹富町,沖縄県立八重山病院附属大原診療所,オキナワケンリツヤエヤマビョウインフゾクオオハラシンリョウジョ,無床診療所,沖縄県竹富町字南風見201-131,,24.26939539,123.8801928,(0980)85-5516,,,,,,,,,,,内科;外科;小児科,0.0,,
2,473812,1146,沖縄県,竹富町,沖縄県立八重山病院附属 小浜診療所,オキナワケンリツヤエヤマビョウインフゾク コハマシンリョウジョ,無床診療所,沖縄県竹富町字小浜30,,24.33978234,123.9791566,(0980)85-3247,,,,,,,,,,,内科;外科;小児科,0.0,,
3,473812,1147,沖縄県,竹富町,県立八重山病院附属  西表西部診療所,ケンリツヤエヤマビョウインフゾク  イリオモテセイブシンリョウジョ,無床診療所,沖縄県竹富町字西表694,,24.38718927,123.7476266,(0980)85-6268,,,,,,,,,,,内科;外科;小児科,0.0,,
4,473812,1151,沖縄県,竹富町,竹富町立竹富診療所,タケトミチョウリツタケトミシンリョウジョ,無床診療所,沖縄県竹富町字竹富323,,24.329267,124.0852984,(0980)85-2132,,,,,,,,,,,内科,0.0,,
5,473812,1152,沖縄県,竹富町,沖縄県立八重山病院附属  波照間診療所,オキナワケンリツヤエヤマビョウインフゾク  ハテルマシンリョウジョ,無床診療所,沖縄県竹富町字波照間2750-1,,24.06091693,123.774749,(0980)85-8402,,,,,,,,,,,内科;外科;小児科,0.0,,
6,473812,1153,沖縄県,竹富町,竹富町立黒島診療所,タケトミチョウリツクロシマシンリョウジョ,無床診療所,沖縄県竹富町字黒島1473-1,,24.23810395,124.0146588,(0980)85-4114,,,,,,,,,,,内科,0.0,,
7,473812,1159,沖縄県,竹富町,南風見苑診療所,ハエミソノシンリョウジョ,無床診療所,沖縄県竹富町字上原870-237,,24.41192668,123.8040453,(0980)85-6911,,,,,,,,,,,内科,0.0,,
8,473812,1177,沖縄県,竹富町,竹富町立新型コロナウイルスワクチン接種（竹富）診療所,タケトミチョウリツシンガタコロナウイルスワクチンセッシュ（タケトミ）シンリョウジョ,無床診療所,沖縄県竹富町字竹富545　,竹富町立竹富中学校,24.32893921,124.0865955,,,,,,,,,,,,,0.0,,
9,473812,1178,沖縄県,竹富町,竹富町立新型コロナウイルスワクチン接種（黒島）診療所,タケトミチョウリツシンガタコロナウイルスワクチンセッシュ（クロシマ）シンリョウジョ,無床診療所,沖縄県竹富町字黒島1475　,竹富町黒島伝統芸能館,24.2376429,124.0155199,,,,,,,,,,,,,0.0,,
10,473812,1179,沖縄県,竹富町,竹富町立新型コロナウイルスワクチン接種（小浜）診療所,タケトミチョウリツシンガタコロナウイルスワクチンセッシュ（オバマ）シンリョウジョ,無床診療所,沖縄県竹富町字小浜61　,及62.及び2-1　小浜島集会所施設(小浜公民館),24.34014064,123.9815869,,,,,,,,,,,,,0.0,,
11,473812,1180,沖縄県,竹富町,竹富町立新型コロナウイルスワクチン接種（波照間）診療所,タケトミチョウリツシンガタコロナウイルスワクチンセッシュ（ハテルマ）シンリョウジョ,無床診療所,沖縄県竹富町字波照間2770,及2771.及772　波照間農村集落ｾﾝﾀｰ,24.06140573,123.7758517,,,,,,,,,,,,,0.0,,
